{
"type": "FeatureCollection",
"name": "Grocery_Stores_in_13-County_Area",
"crs": { "type": "name", "properties": { "name": "urn:ogc:def:crs:OGC:1.3:CRS84" } },
"features": [
{ "type": "Feature", "properties": { "OBJECTID": 1, "Company": "Assi Plaza Sugarloaf", "SIC_Description": "Grocery Stores", "Address": "1291 Old Peachtree Rd NW", "City": "Suwanee ", "Zip_Code": 30024, "County": "Gwinnett County", "Latitude": 34.004039, "Longitude": -84.084966 }, "geometry": { "type": "Point", "coordinates": [ -84.084966, 34.004039 ] } },
{ "type": "Feature", "properties": { "OBJECTID": 2, "Company": "Buford Highway Farmers Market", "SIC_Description": "Grocery Stores", "Address": "5600 Buford Hwy NE", "City": "Doraville ", "Zip_Code": 30340, "County": "DeKalb County", "Latitude": 33.904669, "Longitude": -84.272089 }, "geometry": { "type": "Point", "coordinates": [ -84.272088999999895, 33.904669 ] } },
{ "type": "Feature", "properties": { "OBJECTID": 3, "Company": "City Farmers Market", "SIC_Description": "Grocery Stores", "Address": "5000 Buford Hwy", "City": "Chamblee", "Zip_Code": 30341, "County": "DeKalb County", "Latitude": 33.888064, "Longitude": -84.288379 }, "geometry": { "type": "Point", "coordinates": [ -84.288379, 33.888064 ] } },
{ "type": "Feature", "properties": { "OBJECTID": 4, "Company": "City Farmers Market", "SIC_Description": "Grocery Stores", "Address": "3317 Buford Hwy NE", "City": "Atlanta ", "Zip_Code": 30329, "County": "DeKalb County", "Latitude": 33.842826, "Longitude": -84.328683 }, "geometry": { "type": "Point", "coordinates": [ -84.328683, 33.842826000000102 ] } },
{ "type": "Feature", "properties": { "OBJECTID": 5, "Company": "Clarkston Thriftown", "SIC_Description": "Grocery Stores", "Address": "926 Montreal Rd", "City": "Clarkston ", "Zip_Code": 30021, "County": "DeKalb County", "Latitude": 33.811881, "Longitude": -84.241748 }, "geometry": { "type": "Point", "coordinates": [ -84.241748, 33.811881 ] } },
{ "type": "Feature", "properties": { "OBJECTID": 6, "Company": "Food Depot", "SIC_Description": "Grocery Stores", "Address": "250 Windy Hill Rd SE", "City": "Marietta", "Zip_Code": 30060, "County": "Cobb County", "Latitude": 33.89474, "Longitude": -84.551878 }, "geometry": { "type": "Point", "coordinates": [ -84.551878, 33.89474 ] } },
{ "type": "Feature", "properties": { "OBJECTID": 7, "Company": "Food Depot", "SIC_Description": "Grocery Stores", "Address": "6459 Highway 42", "City": "Rex ", "Zip_Code": 30273, "County": "Clayton County", "Latitude": 33.577418, "Longitude": -84.281242 }, "geometry": { "type": "Point", "coordinates": [ -84.281242, 33.577418000000101 ] } },
{ "type": "Feature", "properties": { "OBJECTID": 8, "Company": "Food Depot", "SIC_Description": "Grocery Stores", "Address": "3697 Highway 5", "City": "Douglasville", "Zip_Code": 30135, "County": "Douglas County", "Latitude": 33.705876, "Longitude": -84.777635 }, "geometry": { "type": "Point", "coordinates": [ -84.777635, 33.705876 ] } },
{ "type": "Feature", "properties": { "OBJECTID": 9, "Company": "Food Depot", "SIC_Description": "Grocery Stores", "Address": "2300 Salem Rd SE", "City": "Conyers ", "Zip_Code": 30013, "County": "Rockdale County", "Latitude": 33.627468, "Longitude": -83.977604 }, "geometry": { "type": "Point", "coordinates": [ -83.977604, 33.6274680000001 ] } },
{ "type": "Feature", "properties": { "OBJECTID": 10, "Company": "Food Depot", "SIC_Description": "Grocery Stores", "Address": "560 Macon St", "City": "McDonough ", "Zip_Code": 30253, "County": "Henry County", "Latitude": 33.431873, "Longitude": -84.145605 }, "geometry": { "type": "Point", "coordinates": [ -84.145605, 33.431873000000103 ] } },
{ "type": "Feature", "properties": { "OBJECTID": 11, "Company": "Food Depot", "SIC_Description": "Grocery Stores", "Address": "3030 Bankhead Hwy", "City": "Austell ", "Zip_Code": 30168, "County": "Douglas County", "Latitude": 33.798192, "Longitude": -84.642061 }, "geometry": { "type": "Point", "coordinates": [ -84.642061, 33.798192 ] } },
{ "type": "Feature", "properties": { "OBJECTID": 12, "Company": "Food Depot", "SIC_Description": "Grocery Stores", "Address": "4709 N Henry Blvd", "City": "Stockbridge ", "Zip_Code": 30281, "County": "Henry County", "Latitude": 33.54428, "Longitude": -84.233807 }, "geometry": { "type": "Point", "coordinates": [ -84.233807, 33.5442800000001 ] } },
{ "type": "Feature", "properties": { "OBJECTID": 13, "Company": "Food Depot", "SIC_Description": "Grocery Stores", "Address": "80 NW Broad St", "City": "Fairburn", "Zip_Code": 30213, "County": "Fulton County", "Latitude": 33.567801, "Longitude": -84.579785 }, "geometry": { "type": "Point", "coordinates": [ -84.579785, 33.567801 ] } },
{ "type": "Feature", "properties": { "OBJECTID": 14, "Company": "Food Depot", "SIC_Description": "Grocery Stores", "Address": "6642 Highway 85", "City": "Riverdale ", "Zip_Code": 30274, "County": "Clayton County", "Latitude": 33.57363, "Longitude": -84.412408 }, "geometry": { "type": "Point", "coordinates": [ -84.412408, 33.57363 ] } },
{ "type": "Feature", "properties": { "OBJECTID": 15, "Company": "Food Depot", "SIC_Description": "Grocery Stores", "Address": "5741 Rockbridge Rd", "City": "Stone Mountain", "Zip_Code": 30087, "County": "DeKalb County", "Latitude": 33.786389, "Longitude": -84.159532 }, "geometry": { "type": "Point", "coordinates": [ -84.159532, 33.786389 ] } },
{ "type": "Feature", "properties": { "OBJECTID": 16, "Company": "Food Depot", "SIC_Description": "Grocery Stores", "Address": "1355 E West Connector", "City": "Austell ", "Zip_Code": 30106, "County": "Cobb County", "Latitude": 33.855022, "Longitude": -84.598787 }, "geometry": { "type": "Point", "coordinates": [ -84.598787, 33.855022 ] } },
{ "type": "Feature", "properties": { "OBJECTID": 17, "Company": "Food Depot", "SIC_Description": "Grocery Stores", "Address": "3205 S Cobb Dr SE", "City": "Smyrna", "Zip_Code": 30080, "County": "Cobb County", "Latitude": 33.874723, "Longitude": -84.531024 }, "geometry": { "type": "Point", "coordinates": [ -84.531024, 33.874723000000103 ] } },
{ "type": "Feature", "properties": { "OBJECTID": 18, "Company": "Food Depot", "SIC_Description": "Grocery Stores", "Address": "124 Bullsboro Dr", "City": "Newnan", "Zip_Code": 30263, "County": "Coweta County", "Latitude": 33.387369, "Longitude": -84.778603 }, "geometry": { "type": "Point", "coordinates": [ -84.778603, 33.387369 ] } },
{ "type": "Feature", "properties": { "OBJECTID": 19, "Company": "Food Depot", "SIC_Description": "Grocery Stores", "Address": "2600 Highway 138 E", "City": "Stockbridge ", "Zip_Code": 30281, "County": "Henry County", "Latitude": 33.585659, "Longitude": -84.148574 }, "geometry": { "type": "Point", "coordinates": [ -84.148573999999897, 33.585659 ] } },
{ "type": "Feature", "properties": { "OBJECTID": 20, "Company": "Food Depot", "SIC_Description": "Grocery Stores", "Address": "2985 Villa Rica Hwy", "City": "Dallas", "Zip_Code": 30157, "County": "Paulding County", "Latitude": 33.869502, "Longitude": -84.841575 }, "geometry": { "type": "Point", "coordinates": [ -84.841575, 33.869502 ] } },
{ "type": "Feature", "properties": { "OBJECTID": 21, "Company": "Food Depot", "SIC_Description": "Grocery Stores", "Address": "200 Banks Sta", "City": "Fayetteville", "Zip_Code": 30214, "County": "Fayette County", "Latitude": 33.468985, "Longitude": -84.441142 }, "geometry": { "type": "Point", "coordinates": [ -84.441142, 33.468985 ] } },
{ "type": "Feature", "properties": { "OBJECTID": 22, "Company": "GreatWall Supermarket", "SIC_Description": "Grocery Stores", "Address": "2300 Pleasant Hill Rd", "City": "Duluth", "Zip_Code": 30096, "County": "Gwinnett County", "Latitude": 33.962688, "Longitude": -84.137558 }, "geometry": { "type": "Point", "coordinates": [ -84.137558, 33.962688 ] } },
{ "type": "Feature", "properties": { "OBJECTID": 23, "Company": "Ingles", "SIC_Description": "Grocery Stores", "Address": "2175 Fairburn Rd", "City": "Douglasville", "Zip_Code": 30135, "County": "Douglas County", "Latitude": 33.746457, "Longitude": -84.69656 }, "geometry": { "type": "Point", "coordinates": [ -84.69656, 33.746457 ] } },
{ "type": "Feature", "properties": { "OBJECTID": 24, "Company": "Ingles", "SIC_Description": "Grocery Stores", "Address": "4815 Rockbridge Rd", "City": "Stone Mountain", "Zip_Code": 30083, "County": "DeKalb County", "Latitude": 33.786991, "Longitude": -84.196677 }, "geometry": { "type": "Point", "coordinates": [ -84.196677, 33.7869910000001 ] } },
{ "type": "Feature", "properties": { "OBJECTID": 25, "Company": "Ingles", "SIC_Description": "Grocery Stores", "Address": "100 Fairview Rd", "City": "Ellenwood ", "Zip_Code": 30294, "County": "Henry County", "Latitude": 33.620239, "Longitude": -84.23983 }, "geometry": { "type": "Point", "coordinates": [ -84.23983, 33.620239 ] } },
{ "type": "Feature", "properties": { "OBJECTID": 26, "Company": "Ingles", "SIC_Description": "Grocery Stores", "Address": "270 Merchants Sq", "City": "Dallas", "Zip_Code": 30132, "County": "Paulding County", "Latitude": 33.909341, "Longitude": -84.801757 }, "geometry": { "type": "Point", "coordinates": [ -84.801757, 33.909341 ] } },
{ "type": "Feature", "properties": { "OBJECTID": 27, "Company": "Ingles", "SIC_Description": "Grocery Stores", "Address": "135 Highway 92 S", "City": "Fayetteville", "Zip_Code": 30215, "County": "Fayette County", "Latitude": 33.429038, "Longitude": -84.449329 }, "geometry": { "type": "Point", "coordinates": [ -84.449329, 33.429038 ] } },
{ "type": "Feature", "properties": { "OBJECTID": 28, "Company": "Ingles", "SIC_Description": "Grocery Stores", "Address": "104 Riverstone Pkwy", "City": "Canton", "Zip_Code": 30114, "County": "Cherokee County", "Latitude": 34.255785, "Longitude": -84.465281 }, "geometry": { "type": "Point", "coordinates": [ -84.465281, 34.255785000000103 ] } },
{ "type": "Feature", "properties": { "OBJECTID": 29, "Company": "Ingles", "SIC_Description": "Grocery Stores", "Address": "1305 W 3rd St", "City": "Jackson ", "Zip_Code": 30233, "County": "Butts County", "Latitude": 33.293267, "Longitude": -83.981345 }, "geometry": { "type": "Point", "coordinates": [ -83.981345, 33.2932670000001 ] } },
{ "type": "Feature", "properties": { "OBJECTID": 30, "Company": "Ingles", "SIC_Description": "Grocery Stores", "Address": "5075 Peachtree Pkwy", "City": "Norcross", "Zip_Code": 30092, "County": "Gwinnett County", "Latitude": 33.984644, "Longitude": -84.213012 }, "geometry": { "type": "Point", "coordinates": [ -84.213012, 33.984644000000102 ] } },
{ "type": "Feature", "properties": { "OBJECTID": 31, "Company": "Ingles", "SIC_Description": "Grocery Stores", "Address": "1817 Dallas Nebo Rd", "City": "Douglasville", "Zip_Code": 30134, "County": "Paulding County", "Latitude": 33.835876, "Longitude": -84.829752 }, "geometry": { "type": "Point", "coordinates": [ -84.829752, 33.835876 ] } },
{ "type": "Feature", "properties": { "OBJECTID": 32, "Company": "Kroger", "SIC_Description": "Grocery Stores", "Address": "8059 Tara Blvd", "City": "Jonesboro ", "Zip_Code": 30236, "County": "Clayton County", "Latitude": 33.533793, "Longitude": -84.3643 }, "geometry": { "type": "Point", "coordinates": [ -84.3643, 33.533793000000102 ] } },
{ "type": "Feature", "properties": { "OBJECTID": 33, "Company": "Kroger", "SIC_Description": "Grocery Stores", "Address": "3000 Old Alabama Rd", "City": "Alpharetta", "Zip_Code": 30022, "County": "Fulton County", "Latitude": 34.021772, "Longitude": -84.271931 }, "geometry": { "type": "Point", "coordinates": [ -84.271930999999896, 34.021772 ] } },
{ "type": "Feature", "properties": { "OBJECTID": 34, "Company": "Kroger", "SIC_Description": "Grocery Stores", "Address": "3030 Headland Dr SW", "City": "Atlanta ", "Zip_Code": 30311, "County": "Fulton County", "Latitude": 33.694173, "Longitude": -84.488639 }, "geometry": { "type": "Point", "coordinates": [ -84.488639, 33.694173 ] } },
{ "type": "Feature", "properties": { "OBJECTID": 35, "Company": "Kroger", "SIC_Description": "Grocery Stores", "Address": "6055 Old National Hwy", "City": "College Park", "Zip_Code": 30349, "County": "Fulton County", "Latitude": 33.590024, "Longitude": -84.466697 }, "geometry": { "type": "Point", "coordinates": [ -84.466697, 33.590024 ] } },
{ "type": "Feature", "properties": { "OBJECTID": 36, "Company": "Kroger", "SIC_Description": "Grocery Stores", "Address": "8501 Hospital Dr", "City": "Douglasville", "Zip_Code": 30134, "County": "Douglas County", "Latitude": 33.747367, "Longitude": -84.730767 }, "geometry": { "type": "Point", "coordinates": [ -84.730767, 33.747367 ] } },
{ "type": "Feature", "properties": { "OBJECTID": 37, "Company": "Kroger", "SIC_Description": "Grocery Stores", "Address": "1715 Howell Mill Rd NW", "City": "Atlanta ", "Zip_Code": 30318, "County": "Fulton County", "Latitude": 33.800986, "Longitude": -84.415777 }, "geometry": { "type": "Point", "coordinates": [ -84.415777, 33.800986000000101 ] } },
{ "type": "Feature", "properties": { "OBJECTID": 38, "Company": "Kroger", "SIC_Description": "Grocery Stores", "Address": "455 Grayson Hwy", "City": "Lawrenceville ", "Zip_Code": 30046, "County": "Gwinnett County", "Latitude": 33.939812, "Longitude": -83.981802 }, "geometry": { "type": "Point", "coordinates": [ -83.981802, 33.939812000000103 ] } },
{ "type": "Feature", "properties": { "OBJECTID": 39, "Company": "Kroger", "SIC_Description": "Grocery Stores", "Address": "4498 Chamblee Dunwoody Rd", "City": "Dunwoody", "Zip_Code": 30338, "County": "DeKalb County", "Latitude": 33.922549, "Longitude": -84.314269 }, "geometry": { "type": "Point", "coordinates": [ -84.314269, 33.922549000000103 ] } },
{ "type": "Feature", "properties": { "OBJECTID": 40, "Company": "Kroger", "SIC_Description": "Grocery Stores", "Address": "4920 Roswell Rd", "City": "Atlanta ", "Zip_Code": 30342, "County": "Fulton County", "Latitude": 33.88878, "Longitude": -84.381514 }, "geometry": { "type": "Point", "coordinates": [ -84.381514, 33.88878 ] } },
{ "type": "Feature", "properties": { "OBJECTID": 41, "Company": "Kroger", "SIC_Description": "Grocery Stores", "Address": "4875 Floyd Rd SW", "City": "Mableton", "Zip_Code": 30126, "County": "Cobb County", "Latitude": 33.835289, "Longitude": -84.576105 }, "geometry": { "type": "Point", "coordinates": [ -84.576105, 33.835289 ] } },
{ "type": "Feature", "properties": { "OBJECTID": 42, "Company": "Kroger", "SIC_Description": "Grocery Stores", "Address": "1745 Highway 138 SE", "City": "Conyers ", "Zip_Code": 30013, "County": "Rockdale County", "Latitude": 33.667515, "Longitude": -83.976341 }, "geometry": { "type": "Point", "coordinates": [ -83.976341, 33.667515 ] } },
{ "type": "Feature", "properties": { "OBJECTID": 43, "Company": "Kroger", "SIC_Description": "Grocery Stores", "Address": "2090 Dunwoody Club Dr", "City": "Atlanta ", "Zip_Code": 30350, "County": "Fulton County", "Latitude": 33.959527, "Longitude": -84.30098 }, "geometry": { "type": "Point", "coordinates": [ -84.30098, 33.959527 ] } },
{ "type": "Feature", "properties": { "OBJECTID": 44, "Company": "Kroger", "SIC_Description": "Grocery Stores", "Address": "2205 Lavista Rd NE", "City": "Atlanta ", "Zip_Code": 30329, "County": "DeKalb County", "Latitude": 33.817569, "Longitude": -84.314753 }, "geometry": { "type": "Point", "coordinates": [ -84.314752999999897, 33.817569 ] } },
{ "type": "Feature", "properties": { "OBJECTID": 45, "Company": "Kroger", "SIC_Description": "Grocery Stores", "Address": "3162 Johnson Ferry Rd", "City": "Marietta", "Zip_Code": 30062, "County": "Cobb County", "Latitude": 34.026051, "Longitude": -84.424071 }, "geometry": { "type": "Point", "coordinates": [ -84.424071, 34.026051000000102 ] } },
{ "type": "Feature", "properties": { "OBJECTID": 46, "Company": "Kroger", "SIC_Description": "Grocery Stores", "Address": "3559 Chamblee Tucker Rd", "City": "Chamblee", "Zip_Code": 30341, "County": "DeKalb County", "Latitude": 33.88554, "Longitude": -84.249026 }, "geometry": { "type": "Point", "coordinates": [ -84.249026, 33.88554 ] } },
{ "type": "Feature", "properties": { "OBJECTID": 47, "Company": "Kroger", "SIC_Description": "Grocery Stores", "Address": "4155 Lawrenceville Hwy NW", "City": "Lilburn ", "Zip_Code": 30047, "County": "Gwinnett County", "Latitude": 33.903528, "Longitude": -84.119325 }, "geometry": { "type": "Point", "coordinates": [ -84.119325, 33.903528000000101 ] } },
{ "type": "Feature", "properties": { "OBJECTID": 48, "Company": "Kroger", "SIC_Description": "Grocery Stores", "Address": "1160 Moreland Ave SE", "City": "Atlanta ", "Zip_Code": 30316, "County": "DeKalb County", "Latitude": 33.722918, "Longitude": -84.349412 }, "geometry": { "type": "Point", "coordinates": [ -84.349412, 33.722918 ] } },
{ "type": "Feature", "properties": { "OBJECTID": 49, "Company": "Kroger", "SIC_Description": "Grocery Stores", "Address": "7125 Highway 85", "City": "Riverdale ", "Zip_Code": 30274, "County": "Clayton County", "Latitude": 33.559578, "Longitude": -84.413946 }, "geometry": { "type": "Point", "coordinates": [ -84.413946, 33.559578 ] } },
{ "type": "Feature", "properties": { "OBJECTID": 50, "Company": "Kroger", "SIC_Description": "Grocery Stores", "Address": "6050 Singleton Rd", "City": "Norcross", "Zip_Code": 30093, "County": "Gwinnett County", "Latitude": 33.905295, "Longitude": -84.200046 }, "geometry": { "type": "Point", "coordinates": [ -84.200046, 33.905295 ] } },
{ "type": "Feature", "properties": { "OBJECTID": 51, "Company": "Kroger", "SIC_Description": "Grocery Stores", "Address": "227 Sandy Springs Pl", "City": "Sandy Springs ", "Zip_Code": 30328, "County": "Fulton County", "Latitude": 33.920074, "Longitude": -84.380206 }, "geometry": { "type": "Point", "coordinates": [ -84.380206, 33.920074 ] } },
{ "type": "Feature", "properties": { "OBJECTID": 52, "Company": "Kroger", "SIC_Description": "Grocery Stores", "Address": "4550 Jonesboro Rd", "City": "Union City", "Zip_Code": 30291, "County": "Fulton County", "Latitude": 33.56807, "Longitude": -84.537652 }, "geometry": { "type": "Point", "coordinates": [ -84.537652, 33.56807 ] } },
{ "type": "Feature", "properties": { "OBJECTID": 53, "Company": "Kroger", "SIC_Description": "Grocery Stores", "Address": "3959 Lavista Rd", "City": "Tucker", "Zip_Code": 30084, "County": "DeKalb County", "Latitude": 33.846383, "Longitude": -84.25358 }, "geometry": { "type": "Point", "coordinates": [ -84.25358, 33.846383000000102 ] } },
{ "type": "Feature", "properties": { "OBJECTID": 54, "Company": "Kroger", "SIC_Description": "Grocery Stores", "Address": "4880 Lower Roswell Rd", "City": "Marietta", "Zip_Code": 30068, "County": "Cobb County", "Latitude": 33.966103, "Longitude": -84.40938 }, "geometry": { "type": "Point", "coordinates": [ -84.409379999999899, 33.966103 ] } },
{ "type": "Feature", "properties": { "OBJECTID": 55, "Company": "Kroger", "SIC_Description": "Grocery Stores", "Address": "1227 Rockbridge Rd", "City": "Stone Mountain", "Zip_Code": 30087, "County": "Gwinnett County", "Latitude": 33.84157, "Longitude": -84.131422 }, "geometry": { "type": "Point", "coordinates": [ -84.131422, 33.84157 ] } },
{ "type": "Feature", "properties": { "OBJECTID": 56, "Company": "Kroger", "SIC_Description": "Grocery Stores", "Address": "3855 Buford Hwy NE", "City": "Atlanta ", "Zip_Code": 30329, "County": "DeKalb County", "Latitude": 33.856565, "Longitude": -84.313521 }, "geometry": { "type": "Point", "coordinates": [ -84.313521, 33.856565 ] } },
{ "type": "Feature", "properties": { "OBJECTID": 57, "Company": "Kroger", "SIC_Description": "Grocery Stores", "Address": "1000 Whitlock Ave NW", "City": "Marietta", "Zip_Code": 30064, "County": "Cobb County", "Latitude": 33.955933, "Longitude": -84.590988 }, "geometry": { "type": "Point", "coordinates": [ -84.590988, 33.955933000000101 ] } },
{ "type": "Feature", "properties": { "OBJECTID": 58, "Company": "Kroger", "SIC_Description": "Grocery Stores", "Address": "3595 Canton Rd", "City": "Marietta", "Zip_Code": 30066, "County": "Cobb County", "Latitude": 34.039658, "Longitude": -84.528542 }, "geometry": { "type": "Point", "coordinates": [ -84.528542, 34.039658 ] } },
{ "type": "Feature", "properties": { "OBJECTID": 59, "Company": "Kroger", "SIC_Description": "Grocery Stores", "Address": "2100 Roswell Rd", "City": "Marietta", "Zip_Code": 30062, "County": "Cobb County", "Latitude": 33.967931, "Longitude": -84.488398 }, "geometry": { "type": "Point", "coordinates": [ -84.488398, 33.9679310000001 ] } },
{ "type": "Feature", "properties": { "OBJECTID": 60, "Company": "Kroger", "SIC_Description": "Grocery Stores", "Address": "564 Crosstown Dr", "City": "Peachtree City", "Zip_Code": 30269, "County": "Fayette County", "Latitude": 33.375965, "Longitude": -84.56265 }, "geometry": { "type": "Point", "coordinates": [ -84.56265, 33.3759650000001 ] } },
{ "type": "Feature", "properties": { "OBJECTID": 61, "Company": "Kroger", "SIC_Description": "Grocery Stores", "Address": "1700 Monroe Dr NE", "City": "Atlanta ", "Zip_Code": 30324, "County": "Fulton County", "Latitude": 33.801201, "Longitude": -84.372016 }, "geometry": { "type": "Point", "coordinates": [ -84.372016, 33.801201 ] } },
{ "type": "Feature", "properties": { "OBJECTID": 62, "Company": "Kroger", "SIC_Description": "Grocery Stores", "Address": "134 Banks Xing", "City": "Fayetteville", "Zip_Code": 30214, "County": "Fayette County", "Latitude": 33.473258, "Longitude": -84.444435 }, "geometry": { "type": "Point", "coordinates": [ -84.444434999999899, 33.473258 ] } },
{ "type": "Feature", "properties": { "OBJECTID": 63, "Company": "Kroger", "SIC_Description": "Grocery Stores", "Address": "3300 Cobb Pkwy SE", "City": "Atlanta ", "Zip_Code": 30339, "County": "Cobb County", "Latitude": 33.872051, "Longitude": -84.456508 }, "geometry": { "type": "Point", "coordinates": [ -84.456508, 33.872051 ] } },
{ "type": "Feature", "properties": { "OBJECTID": 64, "Company": "Kroger", "SIC_Description": "Grocery Stores", "Address": "590 Cascade Ave SW", "City": "Atlanta ", "Zip_Code": 30310, "County": "Fulton County", "Latitude": 33.738511, "Longitude": -84.434761 }, "geometry": { "type": "Point", "coordinates": [ -84.434761, 33.738511000000102 ] } },
{ "type": "Feature", "properties": { "OBJECTID": 65, "Company": "Kroger", "SIC_Description": "Grocery Stores", "Address": "1122 Powers Ferry Rd SE", "City": "Marietta", "Zip_Code": 30067, "County": "Cobb County", "Latitude": 33.923276, "Longitude": -84.469335 }, "geometry": { "type": "Point", "coordinates": [ -84.469335, 33.923276 ] } },
{ "type": "Feature", "properties": { "OBJECTID": 66, "Company": "Kroger", "SIC_Description": "Grocery Stores", "Address": "2385 Wesley Chapel Rd", "City": "Decatur ", "Zip_Code": 30035, "County": "DeKalb County", "Latitude": 33.718761, "Longitude": -84.215433 }, "geometry": { "type": "Point", "coordinates": [ -84.215433, 33.718761 ] } },
{ "type": "Feature", "properties": { "OBJECTID": 67, "Company": "Kroger", "SIC_Description": "Grocery Stores", "Address": "3455 Peachtree Industrial Blvd", "City": "Duluth", "Zip_Code": 30096, "County": "Gwinnett County", "Latitude": 34.006581, "Longitude": -84.170274 }, "geometry": { "type": "Point", "coordinates": [ -84.170274, 34.006581 ] } },
{ "type": "Feature", "properties": { "OBJECTID": 68, "Company": "Kroger", "SIC_Description": "Grocery Stores", "Address": "3093 Steve Reynolds Blvd", "City": "Duluth", "Zip_Code": 30096, "County": "Gwinnett County", "Latitude": 33.953307, "Longitude": -84.153264 }, "geometry": { "type": "Point", "coordinates": [ -84.153264, 33.953307000000102 ] } },
{ "type": "Feature", "properties": { "OBJECTID": 69, "Company": "Kroger", "SIC_Description": "Grocery Stores", "Address": "3330 Cobb Pkwy NW", "City": "Acworth ", "Zip_Code": 30101, "County": "Cobb County", "Latitude": 34.034918, "Longitude": -84.678176 }, "geometry": { "type": "Point", "coordinates": [ -84.678176, 34.034918 ] } },
{ "type": "Feature", "properties": { "OBJECTID": 70, "Company": "Kroger", "SIC_Description": "Grocery Stores", "Address": "3251 Highway 5", "City": "Douglasville", "Zip_Code": 30135, "County": "Douglas County", "Latitude": 33.718914, "Longitude": -84.764796 }, "geometry": { "type": "Point", "coordinates": [ -84.764796, 33.718914 ] } },
{ "type": "Feature", "properties": { "OBJECTID": 71, "Company": "Kroger", "SIC_Description": "Grocery Stores", "Address": "3050 Five Forks Trickum Rd SW", "City": "Lilburn ", "Zip_Code": 30047, "County": "Gwinnett County", "Latitude": 33.885035, "Longitude": -84.06149 }, "geometry": { "type": "Point", "coordinates": [ -84.06149, 33.885035000000101 ] } },
{ "type": "Feature", "properties": { "OBJECTID": 72, "Company": "Kroger", "SIC_Description": "Grocery Stores", "Address": "3618 Highway 138 SE", "City": "Stockbridge ", "Zip_Code": 30281, "County": "Clayton County", "Latitude": 33.551866, "Longitude": -84.272906 }, "geometry": { "type": "Point", "coordinates": [ -84.272906, 33.551866000000103 ] } },
{ "type": "Feature", "properties": { "OBJECTID": 73, "Company": "Kroger", "SIC_Description": "Grocery Stores", "Address": "10945 State Bridge Rd", "City": "Alpharetta", "Zip_Code": 30022, "County": "Fulton County", "Latitude": 34.047522, "Longitude": -84.223754 }, "geometry": { "type": "Point", "coordinates": [ -84.223754, 34.0475220000001 ] } },
{ "type": "Feature", "properties": { "OBJECTID": 74, "Company": "Kroger", "SIC_Description": "Grocery Stores", "Address": "301 Jonesboro Rd", "City": "McDonough ", "Zip_Code": 30253, "County": "Henry County", "Latitude": 33.453639, "Longitude": -84.167745 }, "geometry": { "type": "Point", "coordinates": [ -84.167745, 33.453639000000102 ] } },
{ "type": "Feature", "properties": { "OBJECTID": 75, "Company": "Kroger", "SIC_Description": "Grocery Stores", "Address": "12050 Highway 92", "City": "Woodstock ", "Zip_Code": 30188, "County": "Cherokee County", "Latitude": 34.087701, "Longitude": -84.485729 }, "geometry": { "type": "Point", "coordinates": [ -84.485729, 34.087701 ] } },
{ "type": "Feature", "properties": { "OBJECTID": 76, "Company": "Kroger", "SIC_Description": "Grocery Stores", "Address": "630 Thornton Rd", "City": "Lithia Springs", "Zip_Code": 30122, "County": "Douglas County", "Latitude": 33.787406, "Longitude": -84.618223 }, "geometry": { "type": "Point", "coordinates": [ -84.618223, 33.787406 ] } },
{ "type": "Feature", "properties": { "OBJECTID": 77, "Company": "Kroger", "SIC_Description": "Grocery Stores", "Address": "4045 Marietta Hwy", "City": "Canton", "Zip_Code": 30114, "County": "Cherokee County", "Latitude": 34.217571, "Longitude": -84.505678 }, "geometry": { "type": "Point", "coordinates": [ -84.505678, 34.217571 ] } },
{ "type": "Feature", "properties": { "OBJECTID": 78, "Company": "Kroger", "SIC_Description": "Grocery Stores", "Address": "1475 Buford Dr", "City": "Lawrenceville ", "Zip_Code": 30043, "County": "Gwinnett County", "Latitude": 34.004992, "Longitude": -83.988074 }, "geometry": { "type": "Point", "coordinates": [ -83.988074, 34.004992000000101 ] } },
{ "type": "Feature", "properties": { "OBJECTID": 79, "Company": "Kroger", "SIC_Description": "Grocery Stores", "Address": "12460 Crabapple Rd", "City": "Alpharetta", "Zip_Code": 30004, "County": "Fulton County", "Latitude": 34.086029, "Longitude": -84.353968 }, "geometry": { "type": "Point", "coordinates": [ -84.353968, 34.086029000000103 ] } },
{ "type": "Feature", "properties": { "OBJECTID": 80, "Company": "Kroger", "SIC_Description": "Grocery Stores", "Address": "910 Athens Hwy", "City": "Loganville", "Zip_Code": 30052, "County": "Gwinnett County", "Latitude": 33.860672, "Longitude": -83.954148 }, "geometry": { "type": "Point", "coordinates": [ -83.954148, 33.8606720000001 ] } },
{ "type": "Feature", "properties": { "OBJECTID": 81, "Company": "Kroger", "SIC_Description": "Grocery Stores", "Address": "6199 Highway 92", "City": "Acworth ", "Zip_Code": 30102, "County": "Cherokee County", "Latitude": 34.088962, "Longitude": -84.585083 }, "geometry": { "type": "Point", "coordinates": [ -84.585082999999898, 34.088962 ] } },
{ "type": "Feature", "properties": { "OBJECTID": 82, "Company": "Kroger", "SIC_Description": "Grocery Stores", "Address": "1720 Mars Hill Rd NW", "City": "Acworth ", "Zip_Code": 30101, "County": "Cobb County", "Latitude": 33.997849, "Longitude": -84.705314 }, "geometry": { "type": "Point", "coordinates": [ -84.705314, 33.997849 ] } },
{ "type": "Feature", "properties": { "OBJECTID": 83, "Company": "Kroger", "SIC_Description": "Grocery Stores", "Address": "950 Herrington Rd", "City": "Lawrenceville ", "Zip_Code": 30044, "County": "Gwinnett County", "Latitude": 33.941843, "Longitude": -84.081042 }, "geometry": { "type": "Point", "coordinates": [ -84.081042, 33.941843 ] } },
{ "type": "Feature", "properties": { "OBJECTID": 84, "Company": "Kroger", "SIC_Description": "Grocery Stores", "Address": "3895 Cherokee St NW", "City": "Kennesaw", "Zip_Code": 30144, "County": "Cobb County", "Latitude": 34.048406, "Longitude": -84.598851 }, "geometry": { "type": "Point", "coordinates": [ -84.598851, 34.048406 ] } },
{ "type": "Feature", "properties": { "OBJECTID": 85, "Company": "Kroger", "SIC_Description": "Grocery Stores", "Address": "2295 Towne Lake Pkwy", "City": "Woodstock ", "Zip_Code": 30189, "County": "Cherokee County", "Latitude": 34.113211, "Longitude": -84.553933 }, "geometry": { "type": "Point", "coordinates": [ -84.553933, 34.113211 ] } },
{ "type": "Feature", "properties": { "OBJECTID": 86, "Company": "Kroger", "SIC_Description": "Grocery Stores", "Address": "2100 Riverside Pkwy", "City": "Lawrenceville ", "Zip_Code": 30043, "County": "Gwinnett County", "Latitude": 33.966671, "Longitude": -84.035527 }, "geometry": { "type": "Point", "coordinates": [ -84.035527, 33.966671 ] } },
{ "type": "Feature", "properties": { "OBJECTID": 87, "Company": "Kroger", "SIC_Description": "Grocery Stores", "Address": "6555 Sugarloaf Pkwy", "City": "Duluth", "Zip_Code": 30097, "County": "Gwinnett County", "Latitude": 33.998874, "Longitude": -84.093428 }, "geometry": { "type": "Point", "coordinates": [ -84.093428, 33.9988740000001 ] } },
{ "type": "Feature", "properties": { "OBJECTID": 88, "Company": "Kroger", "SIC_Description": "Grocery Stores", "Address": "1799 Briarcliff Rd NE", "City": "Atlanta ", "Zip_Code": 30306, "County": "DeKalb County", "Latitude": 33.804841, "Longitude": -84.337386 }, "geometry": { "type": "Point", "coordinates": [ -84.337386, 33.804841000000103 ] } },
{ "type": "Feature", "properties": { "OBJECTID": 89, "Company": "Kroger", "SIC_Description": "Grocery Stores", "Address": "2960 Shallowford Rd", "City": "Marietta", "Zip_Code": 30066, "County": "Cobb County", "Latitude": 34.036451, "Longitude": -84.465632 }, "geometry": { "type": "Point", "coordinates": [ -84.465632, 34.036451 ] } },
{ "type": "Feature", "properties": { "OBJECTID": 90, "Company": "Kroger", "SIC_Description": "Grocery Stores", "Address": "1670 Scenic Hwy N", "City": "Snellville", "Zip_Code": 30078, "County": "Gwinnett County", "Latitude": 33.88167, "Longitude": -84.011282 }, "geometry": { "type": "Point", "coordinates": [ -84.011281999999895, 33.88167 ] } },
{ "type": "Feature", "properties": { "OBJECTID": 91, "Company": "Kroger", "SIC_Description": "Grocery Stores", "Address": "8465 Holcomb Bridge Rd", "City": "Alpharetta", "Zip_Code": 30022, "County": "Fulton County", "Latitude": 33.985956, "Longitude": -84.270282 }, "geometry": { "type": "Point", "coordinates": [ -84.270282, 33.985956 ] } },
{ "type": "Feature", "properties": { "OBJECTID": 92, "Company": "Kroger", "SIC_Description": "Grocery Stores", "Address": "3425 Cascade Rd SW", "City": "Atlanta ", "Zip_Code": 30311, "County": "Fulton County", "Latitude": 33.722807, "Longitude": -84.499603 }, "geometry": { "type": "Point", "coordinates": [ -84.499603, 33.722807 ] } },
{ "type": "Feature", "properties": { "OBJECTID": 93, "Company": "Kroger", "SIC_Description": "Grocery Stores", "Address": "805 Glynn St S", "City": "Fayetteville", "Zip_Code": 30214, "County": "Fayette County", "Latitude": 33.433744, "Longitude": -84.456799 }, "geometry": { "type": "Point", "coordinates": [ -84.456799, 33.433744 ] } },
{ "type": "Feature", "properties": { "OBJECTID": 94, "Company": "Kroger", "SIC_Description": "Grocery Stores", "Address": "4357 Lawrenceville Hwy", "City": "Tucker", "Zip_Code": 30084, "County": "DeKalb County", "Latitude": 33.85663, "Longitude": -84.208495 }, "geometry": { "type": "Point", "coordinates": [ -84.208495, 33.856630000000102 ] } },
{ "type": "Feature", "properties": { "OBJECTID": 95, "Company": "Kroger", "SIC_Description": "Grocery Stores", "Address": "400 Peachtree Industrial Blvd", "City": "Suwanee ", "Zip_Code": 30024, "County": "Gwinnett County", "Latitude": 34.064951, "Longitude": -84.072475 }, "geometry": { "type": "Point", "coordinates": [ -84.072474999999898, 34.0649510000001 ] } },
{ "type": "Feature", "properties": { "OBJECTID": 96, "Company": "Kroger", "SIC_Description": "Grocery Stores", "Address": "720 Commerce Dr", "City": "Decatur ", "Zip_Code": 30030, "County": "DeKalb County", "Latitude": 33.777769, "Longitude": -84.293968 }, "geometry": { "type": "Point", "coordinates": [ -84.293968, 33.777769 ] } },
{ "type": "Feature", "properties": { "OBJECTID": 97, "Company": "Kroger", "SIC_Description": "Grocery Stores", "Address": "2036 Johnson Ferry Rd NE", "City": "Atlanta ", "Zip_Code": 30319, "County": "DeKalb County", "Latitude": 33.892809, "Longitude": -84.327109 }, "geometry": { "type": "Point", "coordinates": [ -84.327109, 33.892809 ] } },
{ "type": "Feature", "properties": { "OBJECTID": 98, "Company": "Kroger", "SIC_Description": "Grocery Stores", "Address": "1750 Hudson Bridge Rd", "City": "Stockbridge ", "Zip_Code": 30281, "County": "Henry County", "Latitude": 33.501479, "Longitude": -84.24376 }, "geometry": { "type": "Point", "coordinates": [ -84.24376, 33.501479000000103 ] } },
{ "type": "Feature", "properties": { "OBJECTID": 99, "Company": "Kroger", "SIC_Description": "Grocery Stores", "Address": "3600 Dallas Hwy SW", "City": "Marietta", "Zip_Code": 30064, "County": "Cobb County", "Latitude": 33.953843, "Longitude": -84.655436 }, "geometry": { "type": "Point", "coordinates": [ -84.655436, 33.953843 ] } },
{ "type": "Feature", "properties": { "OBJECTID": 100, "Company": "Kroger", "SIC_Description": "Grocery Stores", "Address": "1911 Grayson Hwy", "City": "Grayson ", "Zip_Code": 30017, "County": "Gwinnett County", "Latitude": 33.898052, "Longitude": -83.960174 }, "geometry": { "type": "Point", "coordinates": [ -83.960173999999895, 33.898052 ] } },
{ "type": "Feature", "properties": { "OBJECTID": 101, "Company": "Kroger", "SIC_Description": "Grocery Stores", "Address": "1690 Powder Springs Rd SW", "City": "Marietta", "Zip_Code": 30064, "County": "Cobb County", "Latitude": 33.90716, "Longitude": -84.602136 }, "geometry": { "type": "Point", "coordinates": [ -84.602136, 33.90716 ] } },
{ "type": "Feature", "properties": { "OBJECTID": 102, "Company": "Kroger", "SIC_Description": "Grocery Stores", "Address": "11877 Douglas Rd", "City": "Alpharetta", "Zip_Code": 30005, "County": "Fulton County", "Latitude": 34.070835, "Longitude": -84.205289 }, "geometry": { "type": "Point", "coordinates": [ -84.205288999999894, 34.070835 ] } },
{ "type": "Feature", "properties": { "OBJECTID": 103, "Company": "Kroger", "SIC_Description": "Grocery Stores", "Address": "2300 Holcomb Bridge Rd", "City": "Roswell ", "Zip_Code": 30076, "County": "Fulton County", "Latitude": 34.003518, "Longitude": -84.294368 }, "geometry": { "type": "Point", "coordinates": [ -84.294368, 34.003518 ] } },
{ "type": "Feature", "properties": { "OBJECTID": 104, "Company": "Kroger", "SIC_Description": "Grocery Stores", "Address": "12870 Highway 9 N", "City": "Alpharetta", "Zip_Code": 30004, "County": "Fulton County", "Latitude": 34.094816, "Longitude": -84.277481 }, "geometry": { "type": "Point", "coordinates": [ -84.277481, 34.094816 ] } },
{ "type": "Feature", "properties": { "OBJECTID": 105, "Company": "Kroger", "SIC_Description": "Grocery Stores", "Address": "8020 Cumming Hwy", "City": "Canton", "Zip_Code": 30115, "County": "Cherokee County", "Latitude": 34.254499, "Longitude": -84.357316 }, "geometry": { "type": "Point", "coordinates": [ -84.357316, 34.254499000000102 ] } },
{ "type": "Feature", "properties": { "OBJECTID": 106, "Company": "Kroger", "SIC_Description": "Grocery Stores", "Address": "48 Bullsboro Dr", "City": "Newnan", "Zip_Code": 30263, "County": "Coweta County", "Latitude": 33.384483, "Longitude": -84.78458 }, "geometry": { "type": "Point", "coordinates": [ -84.78458, 33.384483 ] } },
{ "type": "Feature", "properties": { "OBJECTID": 107, "Company": "Kroger", "SIC_Description": "Grocery Stores", "Address": "1232 S Hairston Rd", "City": "Stone Mountain", "Zip_Code": 30088, "County": "DeKalb County", "Latitude": 33.760116, "Longitude": -84.196681 }, "geometry": { "type": "Point", "coordinates": [ -84.196681, 33.760116 ] } },
{ "type": "Feature", "properties": { "OBJECTID": 108, "Company": "Kroger", "SIC_Description": "Grocery Stores", "Address": "2121 Lawrenceville Suwanee Rd", "City": "Suwanee ", "Zip_Code": 30024, "County": "Gwinnett County", "Latitude": 34.002818, "Longitude": -84.040328 }, "geometry": { "type": "Point", "coordinates": [ -84.040328, 34.002818 ] } },
{ "type": "Feature", "properties": { "OBJECTID": 109, "Company": "Kroger", "SIC_Description": "Grocery Stores", "Address": "3871 Peachtree Rd NE", "City": "Atlanta ", "Zip_Code": 30319, "County": "DeKalb County", "Latitude": 33.857496, "Longitude": -84.344357 }, "geometry": { "type": "Point", "coordinates": [ -84.344357, 33.857496 ] } },
{ "type": "Feature", "properties": { "OBJECTID": 110, "Company": "Kroger", "SIC_Description": "Grocery Stores", "Address": "2685 Metropolitan Pkwy SW", "City": "Atlanta ", "Zip_Code": 30315, "County": "Fulton County", "Latitude": 33.683241, "Longitude": -84.407808 }, "geometry": { "type": "Point", "coordinates": [ -84.407808, 33.683241000000102 ] } },
{ "type": "Feature", "properties": { "OBJECTID": 111, "Company": "Kroger", "SIC_Description": "Grocery Stores", "Address": "2700 Braselton Hwy", "City": "Dacula", "Zip_Code": 30019, "County": "Gwinnett County", "Latitude": 34.049857, "Longitude": -83.929299 }, "geometry": { "type": "Point", "coordinates": [ -83.929299, 34.049857 ] } },
{ "type": "Feature", "properties": { "OBJECTID": 112, "Company": "Kroger", "SIC_Description": "Grocery Stores", "Address": "4919 Flat Shoals Pkwy", "City": "Decatur ", "Zip_Code": 30034, "County": "DeKalb County", "Latitude": 33.680413, "Longitude": -84.226627 }, "geometry": { "type": "Point", "coordinates": [ -84.226627, 33.680413 ] } },
{ "type": "Feature", "properties": { "OBJECTID": 113, "Company": "Kroger", "SIC_Description": "Grocery Stores", "Address": "2875 N Decatur Rd", "City": "Decatur ", "Zip_Code": 30033, "County": "DeKalb County", "Latitude": 33.793777, "Longitude": -84.275351 }, "geometry": { "type": "Point", "coordinates": [ -84.275351, 33.793777 ] } },
{ "type": "Feature", "properties": { "OBJECTID": 114, "Company": "Kroger", "SIC_Description": "Grocery Stores", "Address": "3479 Memorial Dr", "City": "Decatur ", "Zip_Code": 30032, "County": "DeKalb County", "Latitude": 33.753791, "Longitude": -84.269429 }, "geometry": { "type": "Point", "coordinates": [ -84.269429, 33.753791 ] } },
{ "type": "Feature", "properties": { "OBJECTID": 115, "Company": "Kroger", "SIC_Description": "Grocery Stores", "Address": "3875 Chapel Hill Rd", "City": "Douglasville", "Zip_Code": 30135, "County": "Douglas County", "Latitude": 33.699713, "Longitude": -84.715959 }, "geometry": { "type": "Point", "coordinates": [ -84.715958999999899, 33.699713 ] } },
{ "type": "Feature", "properties": { "OBJECTID": 116, "Company": "Kroger", "SIC_Description": "Grocery Stores", "Address": "101 Fairview Rd", "City": "Ellenwood ", "Zip_Code": 30294, "County": "Henry County", "Latitude": 33.620266, "Longitude": -84.239643 }, "geometry": { "type": "Point", "coordinates": [ -84.239643, 33.6202660000001 ] } },
{ "type": "Feature", "properties": { "OBJECTID": 117, "Company": "Kroger", "SIC_Description": "Grocery Stores", "Address": "5664 Jonesboro Rd", "City": "Morrow", "Zip_Code": 30260, "County": "Clayton County", "Latitude": 33.600593, "Longitude": -84.339378 }, "geometry": { "type": "Point", "coordinates": [ -84.339378, 33.600593000000103 ] } },
{ "type": "Feature", "properties": { "OBJECTID": 118, "Company": "Kroger", "SIC_Description": "Grocery Stores", "Address": "6678 Covington Hwy", "City": "Lithonia", "Zip_Code": 30058, "County": "DeKalb County", "Latitude": 33.717706, "Longitude": -84.146733 }, "geometry": { "type": "Point", "coordinates": [ -84.146733, 33.717706 ] } },
{ "type": "Feature", "properties": { "OBJECTID": 119, "Company": "Kroger", "SIC_Description": "Grocery Stores", "Address": "10375 Tara Blvd", "City": "Jonesboro ", "Zip_Code": 30236, "County": "Clayton County", "Latitude": 33.471907, "Longitude": -84.336597 }, "geometry": { "type": "Point", "coordinates": [ -84.336597, 33.471907 ] } },
{ "type": "Feature", "properties": { "OBJECTID": 120, "Company": "Kroger", "SIC_Description": "Grocery Stores", "Address": "5900 E Lake Pkwy", "City": "McDonough ", "Zip_Code": 30253, "County": "Henry County", "Latitude": 33.507343, "Longitude": -84.142303 }, "geometry": { "type": "Point", "coordinates": [ -84.142303, 33.507343 ] } },
{ "type": "Feature", "properties": { "OBJECTID": 121, "Company": "Kroger", "SIC_Description": "Grocery Stores", "Address": "3150 Highway 34 E", "City": "Newnan", "Zip_Code": 30265, "County": "Coweta County", "Latitude": 33.407487, "Longitude": -84.672756 }, "geometry": { "type": "Point", "coordinates": [ -84.672755999999893, 33.407487000000103 ] } },
{ "type": "Feature", "properties": { "OBJECTID": 122, "Company": "Kroger", "SIC_Description": "Grocery Stores", "Address": "1101 N Peachtree Pkwy", "City": "Peachtree City", "Zip_Code": 30269, "County": "Fayette County", "Latitude": 33.441146, "Longitude": -84.589469 }, "geometry": { "type": "Point", "coordinates": [ -84.589469, 33.441146000000103 ] } },
{ "type": "Feature", "properties": { "OBJECTID": 123, "Company": "Kroger", "SIC_Description": "Grocery Stores", "Address": "900 Marietta Hwy", "City": "Roswell ", "Zip_Code": 30075, "County": "Fulton County", "Latitude": 34.005875, "Longitude": -84.388928 }, "geometry": { "type": "Point", "coordinates": [ -84.388928, 34.005875000000103 ] } },
{ "type": "Feature", "properties": { "OBJECTID": 124, "Company": "Kroger", "SIC_Description": "Grocery Stores", "Address": "3035 Scenic Hwy S", "City": "Snellville", "Zip_Code": 30039, "County": "Gwinnett County", "Latitude": 33.825376, "Longitude": -84.031869 }, "geometry": { "type": "Point", "coordinates": [ -84.031869, 33.825376 ] } },
{ "type": "Feature", "properties": { "OBJECTID": 125, "Company": "Kroger", "SIC_Description": "Grocery Stores", "Address": "4400 Brownsville Rd", "City": "Powder Springs", "Zip_Code": 30127, "County": "Cobb County", "Latitude": 33.846385, "Longitude": -84.697032 }, "geometry": { "type": "Point", "coordinates": [ -84.697032, 33.846385 ] } },
{ "type": "Feature", "properties": { "OBJECTID": 126, "Company": "Kroger", "SIC_Description": "Grocery Stores", "Address": "570 E Crossville Rd", "City": "Roswell ", "Zip_Code": 30075, "County": "Fulton County", "Latitude": 34.037926, "Longitude": -84.345944 }, "geometry": { "type": "Point", "coordinates": [ -84.345944, 34.037926 ] } },
{ "type": "Feature", "properties": { "OBJECTID": 127, "Company": "Kroger", "SIC_Description": "Grocery Stores", "Address": "3300 Hamilton Mill Rd", "City": "Buford", "Zip_Code": 30519, "County": "Gwinnett County", "Latitude": 34.094314, "Longitude": -83.935499 }, "geometry": { "type": "Point", "coordinates": [ -83.935498999999893, 34.094314 ] } },
{ "type": "Feature", "properties": { "OBJECTID": 128, "Company": "Kroger", "SIC_Description": "Grocery Stores", "Address": "5341 Old Highway 5", "City": "Woodstock ", "Zip_Code": 30188, "County": "Cherokee County", "Latitude": 34.14128, "Longitude": -84.503914 }, "geometry": { "type": "Point", "coordinates": [ -84.503914, 34.141280000000101 ] } },
{ "type": "Feature", "properties": { "OBJECTID": 129, "Company": "Kroger", "SIC_Description": "Grocery Stores", "Address": "1225 Caroline St NE", "City": "Atlanta ", "Zip_Code": 30307, "County": "DeKalb County", "Latitude": 33.758389, "Longitude": -84.345703 }, "geometry": { "type": "Point", "coordinates": [ -84.345703, 33.758389000000101 ] } },
{ "type": "Feature", "properties": { "OBJECTID": 130, "Company": "Kroger", "SIC_Description": "Grocery Stores", "Address": "455 Nathan Dean Blvd", "City": "Dallas", "Zip_Code": 30132, "County": "Paulding County", "Latitude": 33.911017, "Longitude": -84.825681 }, "geometry": { "type": "Point", "coordinates": [ -84.825681, 33.911017000000101 ] } },
{ "type": "Feature", "properties": { "OBJECTID": 131, "Company": "Kroger", "SIC_Description": "Grocery Stores", "Address": "8876 Dallas Acworth Hwy", "City": "Dallas", "Zip_Code": 30132, "County": "Paulding County", "Latitude": 34.011701, "Longitude": -84.754206 }, "geometry": { "type": "Point", "coordinates": [ -84.754206, 34.011701000000102 ] } },
{ "type": "Feature", "properties": { "OBJECTID": 132, "Company": "Kroger", "SIC_Description": "Grocery Stores", "Address": "4815 Ridge Rd", "City": "Douglasville", "Zip_Code": 30134, "County": "Paulding County", "Latitude": 33.818106, "Longitude": -84.811042 }, "geometry": { "type": "Point", "coordinates": [ -84.811042, 33.8181060000001 ] } },
{ "type": "Feature", "properties": { "OBJECTID": 133, "Company": "Kroger", "SIC_Description": "Grocery Stores", "Address": "6766 Hickory Flat Hwy", "City": "Canton", "Zip_Code": 30115, "County": "Cherokee County", "Latitude": 34.170355, "Longitude": -84.414139 }, "geometry": { "type": "Point", "coordinates": [ -84.414139, 34.170355 ] } },
{ "type": "Feature", "properties": { "OBJECTID": 134, "Company": "Kroger", "SIC_Description": "Grocery Stores", "Address": "1751 Newnan Crossing Blvd E", "City": "Newnan", "Zip_Code": 30265, "County": "Coweta County", "Latitude": 33.458543, "Longitude": -84.661876 }, "geometry": { "type": "Point", "coordinates": [ -84.661876, 33.458543 ] } },
{ "type": "Feature", "properties": { "OBJECTID": 135, "Company": "Kroger", "SIC_Description": "Grocery Stores", "Address": "505 Dacula Rd", "City": "Dacula", "Zip_Code": 30019, "County": "Gwinnett County", "Latitude": 34.000316, "Longitude": -83.909858 }, "geometry": { "type": "Point", "coordinates": [ -83.909858, 34.000316 ] } },
{ "type": "Feature", "properties": { "OBJECTID": 136, "Company": "Kroger", "SIC_Description": "Grocery Stores", "Address": "6001 Cumming Hwy", "City": "Buford", "Zip_Code": 30518, "County": "Gwinnett County", "Latitude": 34.121477, "Longitude": -84.079495 }, "geometry": { "type": "Point", "coordinates": [ -84.079495, 34.121477 ] } },
{ "type": "Feature", "properties": { "OBJECTID": 137, "Company": "Kroger", "SIC_Description": "Grocery Stores", "Address": "725 Ponce De Leon Ave NE", "City": "Atlanta ", "Zip_Code": 30306, "County": "Fulton County", "Latitude": 33.773768, "Longitude": -84.363048 }, "geometry": { "type": "Point", "coordinates": [ -84.363048, 33.773768000000103 ] } },
{ "type": "Feature", "properties": { "OBJECTID": 138, "Company": "Kroger Fresh Fare", "SIC_Description": "Grocery Stores", "Address": "3330 Piedmont Rd NE", "City": "Atlanta ", "Zip_Code": 30305, "County": "Fulton County", "Latitude": 33.846794, "Longitude": -84.372939 }, "geometry": { "type": "Point", "coordinates": [ -84.372939, 33.846794 ] } },
{ "type": "Feature", "properties": { "OBJECTID": 139, "Company": "Little Giant Farmers Market", "SIC_Description": "Grocery Stores", "Address": "7535 Highway 85", "City": "Riverdale ", "Zip_Code": 30274, "County": "Clayton County", "Latitude": 33.548743, "Longitude": -84.414972 }, "geometry": { "type": "Point", "coordinates": [ -84.414972, 33.548743000000101 ] } },
{ "type": "Feature", "properties": { "OBJECTID": 140, "Company": "Little Giant Farmers Market", "SIC_Description": "Grocery Stores", "Address": "2440 Wesley Chapel Rd", "City": "Decatur ", "Zip_Code": 30035, "County": "DeKalb County", "Latitude": 33.716538, "Longitude": -84.215371 }, "geometry": { "type": "Point", "coordinates": [ -84.215371, 33.716538 ] } },
{ "type": "Feature", "properties": { "OBJECTID": 141, "Company": "Marcado Fresco", "SIC_Description": "Grocery Stores", "Address": "4166 Buford Hwy NE", "City": "Atlanta ", "Zip_Code": 30345, "County": "DeKalb County", "Latitude": 33.863214, "Longitude": -84.306099 }, "geometry": { "type": "Point", "coordinates": [ -84.306099, 33.863214 ] } },
{ "type": "Feature", "properties": { "OBJECTID": 142, "Company": "Publix", "SIC_Description": "Grocery Stores", "Address": "3649 Flakes Mill Rd", "City": "Decatur ", "Zip_Code": 30034, "County": "DeKalb County", "Latitude": 33.679309, "Longitude": -84.230943 }, "geometry": { "type": "Point", "coordinates": [ -84.230943, 33.679309 ] } },
{ "type": "Feature", "properties": { "OBJECTID": 143, "Company": "Publix", "SIC_Description": "Grocery Stores", "Address": "5015 Floyd Rd SW", "City": "Mableton", "Zip_Code": 30126, "County": "Cobb County", "Latitude": 33.831698, "Longitude": -84.575855 }, "geometry": { "type": "Point", "coordinates": [ -84.575855, 33.831698000000102 ] } },
{ "type": "Feature", "properties": { "OBJECTID": 144, "Company": "Publix", "SIC_Description": "Grocery Stores", "Address": "2900 Peachtree Rd NW", "City": "Atlanta ", "Zip_Code": 30305, "County": "Fulton County", "Latitude": 33.833652, "Longitude": -84.383262 }, "geometry": { "type": "Point", "coordinates": [ -84.383262, 33.833652 ] } },
{ "type": "Feature", "properties": { "OBJECTID": 145, "Company": "Publix", "SIC_Description": "Grocery Stores", "Address": "4430 Wade Green Rd NW", "City": "Kennesaw", "Zip_Code": 30144, "County": "Cobb County", "Latitude": 34.061679, "Longitude": -84.591044 }, "geometry": { "type": "Point", "coordinates": [ -84.591044, 34.061679 ] } },
{ "type": "Feature", "properties": { "OBJECTID": 146, "Company": "Publix", "SIC_Description": "Grocery Stores", "Address": "6615 Roswell Rd", "City": "Sandy Springs ", "Zip_Code": 30328, "County": "Fulton County", "Latitude": 33.93545, "Longitude": -84.379344 }, "geometry": { "type": "Point", "coordinates": [ -84.379344, 33.935450000000102 ] } },
{ "type": "Feature", "properties": { "OBJECTID": 147, "Company": "Publix", "SIC_Description": "Grocery Stores", "Address": "2159 Highway 20 SE", "City": "Conyers ", "Zip_Code": 30013, "County": "Rockdale County", "Latitude": 33.631287, "Longitude": -84.014491 }, "geometry": { "type": "Point", "coordinates": [ -84.014491, 33.631287 ] } },
{ "type": "Feature", "properties": { "OBJECTID": 148, "Company": "Publix", "SIC_Description": "Grocery Stores", "Address": "3316 Highway 5", "City": "Douglasville", "Zip_Code": 30135, "County": "Douglas County", "Latitude": 33.714925, "Longitude": -84.76815 }, "geometry": { "type": "Point", "coordinates": [ -84.76815, 33.7149250000001 ] } },
{ "type": "Feature", "properties": { "OBJECTID": 149, "Company": "Publix", "SIC_Description": "Grocery Stores", "Address": "380 N Deshong Rd", "City": "Stone Mountain", "Zip_Code": 30087, "County": "DeKalb County", "Latitude": 33.785431, "Longitude": -84.102034 }, "geometry": { "type": "Point", "coordinates": [ -84.102034, 33.785431000000102 ] } },
{ "type": "Feature", "properties": { "OBJECTID": 150, "Company": "Publix", "SIC_Description": "Grocery Stores", "Address": "1050 E Piedmont Rd", "City": "Marietta", "Zip_Code": 30062, "County": "Cobb County", "Latitude": 33.978267, "Longitude": -84.479793 }, "geometry": { "type": "Point", "coordinates": [ -84.479793, 33.978267000000102 ] } },
{ "type": "Feature", "properties": { "OBJECTID": 151, "Company": "Publix", "SIC_Description": "Grocery Stores", "Address": "1100 Johnson Ferry Rd", "City": "Marietta", "Zip_Code": 30068, "County": "Cobb County", "Latitude": 33.97691, "Longitude": -84.415829 }, "geometry": { "type": "Point", "coordinates": [ -84.415829, 33.97691 ] } },
{ "type": "Feature", "properties": { "OBJECTID": 152, "Company": "Publix", "SIC_Description": "Grocery Stores", "Address": "1750 Powder Springs Rd SW", "City": "Marietta", "Zip_Code": 30064, "County": "Cobb County", "Latitude": 33.904293, "Longitude": -84.604518 }, "geometry": { "type": "Point", "coordinates": [ -84.604518, 33.904293000000102 ] } },
{ "type": "Feature", "properties": { "OBJECTID": 153, "Company": "Publix", "SIC_Description": "Grocery Stores", "Address": "3605 Sandy Plains Rd", "City": "Marietta", "Zip_Code": 30066, "County": "Cobb County", "Latitude": 34.038095, "Longitude": -84.461009 }, "geometry": { "type": "Point", "coordinates": [ -84.461009, 34.038095 ] } },
{ "type": "Feature", "properties": { "OBJECTID": 154, "Company": "Publix", "SIC_Description": "Grocery Stores", "Address": "911 Duluth Hwy", "City": "Lawrenceville ", "Zip_Code": 30043, "County": "Gwinnett County", "Latitude": 33.96739, "Longitude": -84.021387 }, "geometry": { "type": "Point", "coordinates": [ -84.021387, 33.967390000000101 ] } },
{ "type": "Feature", "properties": { "OBJECTID": 155, "Company": "Publix", "SIC_Description": "Grocery Stores", "Address": "8725 Roswell Rd", "City": "Atlanta ", "Zip_Code": 30350, "County": "Fulton County", "Latitude": 33.993726, "Longitude": -84.351354 }, "geometry": { "type": "Point", "coordinates": [ -84.351354, 33.993726 ] } },
{ "type": "Feature", "properties": { "OBJECTID": 156, "Company": "Publix", "SIC_Description": "Grocery Stores", "Address": "1905 Scenic Hwy N", "City": "Snellville", "Zip_Code": 30078, "County": "Gwinnett County", "Latitude": 33.878769, "Longitude": -84.012383 }, "geometry": { "type": "Point", "coordinates": [ -84.012383, 33.878769 ] } },
{ "type": "Feature", "properties": { "OBJECTID": 157, "Company": "Publix", "SIC_Description": "Grocery Stores", "Address": "1625 Pleasant Hill Rd", "City": "Duluth", "Zip_Code": 30096, "County": "Gwinnett County", "Latitude": 33.944764, "Longitude": -84.124997 }, "geometry": { "type": "Point", "coordinates": [ -84.124997, 33.944764 ] } },
{ "type": "Feature", "properties": { "OBJECTID": 158, "Company": "Publix", "SIC_Description": "Grocery Stores", "Address": "6300 Powers Ferry Rd", "City": "Atlanta ", "Zip_Code": 30339, "County": "Fulton County", "Latitude": 33.907338, "Longitude": -84.427421 }, "geometry": { "type": "Point", "coordinates": [ -84.427421, 33.907338 ] } },
{ "type": "Feature", "properties": { "OBJECTID": 159, "Company": "Publix", "SIC_Description": "Grocery Stores", "Address": "2380 Buford Dr", "City": "Lawrenceville ", "Zip_Code": 30043, "County": "Gwinnett County", "Latitude": 34.036296, "Longitude": -83.988269 }, "geometry": { "type": "Point", "coordinates": [ -83.988269, 34.0362960000001 ] } },
{ "type": "Feature", "properties": { "OBJECTID": 160, "Company": "Publix", "SIC_Description": "Grocery Stores", "Address": "3550 Centerville Hwy", "City": "Snellville", "Zip_Code": 30039, "County": "Gwinnett County", "Latitude": 33.801869, "Longitude": -84.04237 }, "geometry": { "type": "Point", "coordinates": [ -84.04237, 33.801869000000103 ] } },
{ "type": "Feature", "properties": { "OBJECTID": 161, "Company": "Publix", "SIC_Description": "Grocery Stores", "Address": "4422 Hugh Howell Rd", "City": "Tucker", "Zip_Code": 30084, "County": "DeKalb County", "Latitude": 33.850204, "Longitude": -84.206424 }, "geometry": { "type": "Point", "coordinates": [ -84.206424, 33.850204 ] } },
{ "type": "Feature", "properties": { "OBJECTID": 162, "Company": "Publix", "SIC_Description": "Grocery Stores", "Address": "50 Barrett Pkwy", "City": "Marietta", "Zip_Code": 30066, "County": "Cobb County", "Latitude": 34.013913, "Longitude": -84.549876 }, "geometry": { "type": "Point", "coordinates": [ -84.549876, 34.013913000000102 ] } },
{ "type": "Feature", "properties": { "OBJECTID": 163, "Company": "Publix", "SIC_Description": "Grocery Stores", "Address": "11800 Haynes Bridge Rd", "City": "Alpharetta", "Zip_Code": 30009, "County": "Fulton County", "Latitude": 34.068925, "Longitude": -84.280373 }, "geometry": { "type": "Point", "coordinates": [ -84.280372999999898, 34.068925 ] } },
{ "type": "Feature", "properties": { "OBJECTID": 164, "Company": "Publix", "SIC_Description": "Grocery Stores", "Address": "2035 Mount Zion Rd", "City": "Morrow", "Zip_Code": 30260, "County": "Clayton County", "Latitude": 33.561904, "Longitude": -84.323219 }, "geometry": { "type": "Point", "coordinates": [ -84.323218999999895, 33.561904 ] } },
{ "type": "Feature", "properties": { "OBJECTID": 165, "Company": "Publix", "SIC_Description": "Grocery Stores", "Address": "3435 Ashford Dunwoody Rd NE", "City": "Atlanta ", "Zip_Code": 30319, "County": "DeKalb County", "Latitude": 33.890878, "Longitude": -84.325623 }, "geometry": { "type": "Point", "coordinates": [ -84.325623, 33.890878 ] } },
{ "type": "Feature", "properties": { "OBJECTID": 166, "Company": "Publix", "SIC_Description": "Grocery Stores", "Address": "3507 Baker Rd NW", "City": "Acworth ", "Zip_Code": 30101, "County": "Cobb County", "Latitude": 34.076266, "Longitude": -84.653341 }, "geometry": { "type": "Point", "coordinates": [ -84.653341, 34.076266 ] } },
{ "type": "Feature", "properties": { "OBJECTID": 167, "Company": "Publix", "SIC_Description": "Grocery Stores", "Address": "7525 Roswell Rd", "City": "Atlanta ", "Zip_Code": 30350, "County": "Fulton County", "Latitude": 33.961604, "Longitude": -84.36573 }, "geometry": { "type": "Point", "coordinates": [ -84.36573, 33.961604000000101 ] } },
{ "type": "Feature", "properties": { "OBJECTID": 168, "Company": "Publix", "SIC_Description": "Grocery Stores", "Address": "9925 Haynes Bridge Rd", "City": "Alpharetta", "Zip_Code": 30022, "County": "Fulton County", "Latitude": 34.024529, "Longitude": -84.269562 }, "geometry": { "type": "Point", "coordinates": [ -84.269562, 34.024529 ] } },
{ "type": "Feature", "properties": { "OBJECTID": 169, "Company": "Publix", "SIC_Description": "Grocery Stores", "Address": "11585 Jones Bridge Rd", "City": "Alpharetta", "Zip_Code": 30022, "County": "Fulton County", "Latitude": 34.061698, "Longitude": -84.215277 }, "geometry": { "type": "Point", "coordinates": [ -84.215277, 34.061698 ] } },
{ "type": "Feature", "properties": { "OBJECTID": 170, "Company": "Publix", "SIC_Description": "Grocery Stores", "Address": "1860 Sandy Plains Rd", "City": "Marietta", "Zip_Code": 30066, "County": "Cobb County", "Latitude": 33.994827, "Longitude": -84.509424 }, "geometry": { "type": "Point", "coordinates": [ -84.509424, 33.994827 ] } },
{ "type": "Feature", "properties": { "OBJECTID": 171, "Company": "Publix", "SIC_Description": "Grocery Stores", "Address": "885 Woodstock Rd", "City": "Roswell ", "Zip_Code": 30075, "County": "Fulton County", "Latitude": 34.061021, "Longitude": -84.387484 }, "geometry": { "type": "Point", "coordinates": [ -84.387484, 34.061021 ] } },
{ "type": "Feature", "properties": { "OBJECTID": 172, "Company": "Publix", "SIC_Description": "Grocery Stores", "Address": "4045 Five Forks Trickum Rd SW", "City": "Lilburn ", "Zip_Code": 30047, "County": "Gwinnett County", "Latitude": 33.868957, "Longitude": -84.092115 }, "geometry": { "type": "Point", "coordinates": [ -84.092115, 33.868957000000101 ] } },
{ "type": "Feature", "properties": { "OBJECTID": 173, "Company": "Publix", "SIC_Description": "Grocery Stores", "Address": "909 Eagles Landing Pkwy", "City": "Stockbridge ", "Zip_Code": 30281, "County": "Henry County", "Latitude": 33.511969, "Longitude": -84.220536 }, "geometry": { "type": "Point", "coordinates": [ -84.220536, 33.5119690000001 ] } },
{ "type": "Feature", "properties": { "OBJECTID": 174, "Company": "Publix", "SIC_Description": "Grocery Stores", "Address": "3200 Holcomb Bridge Rd", "City": "Norcross", "Zip_Code": 30092, "County": "Gwinnett County", "Latitude": 33.949149, "Longitude": -84.232081 }, "geometry": { "type": "Point", "coordinates": [ -84.232080999999894, 33.949149 ] } },
{ "type": "Feature", "properties": { "OBJECTID": 175, "Company": "Publix", "SIC_Description": "Grocery Stores", "Address": "5100 Dallas Hwy", "City": "Powder Springs", "Zip_Code": 30127, "County": "Cobb County", "Latitude": 33.940919, "Longitude": -84.701975 }, "geometry": { "type": "Point", "coordinates": [ -84.701975, 33.9409190000001 ] } },
{ "type": "Feature", "properties": { "OBJECTID": 176, "Company": "Publix", "SIC_Description": "Grocery Stores", "Address": "2774 Cobb Pkwy NW", "City": "Kennesaw", "Zip_Code": 30152, "County": "Cobb County", "Latitude": 34.021501, "Longitude": -84.623793 }, "geometry": { "type": "Point", "coordinates": [ -84.623793, 34.0215010000001 ] } },
{ "type": "Feature", "properties": { "OBJECTID": 177, "Company": "Publix", "SIC_Description": "Grocery Stores", "Address": "2500 Dallas Hwy SW", "City": "Marietta", "Zip_Code": 30064, "County": "Cobb County", "Latitude": 33.946309, "Longitude": -84.625422 }, "geometry": { "type": "Point", "coordinates": [ -84.625422, 33.946309 ] } },
{ "type": "Feature", "properties": { "OBJECTID": 178, "Company": "Publix", "SIC_Description": "Grocery Stores", "Address": "2451 Cumberland Pkwy SE", "City": "Atlanta ", "Zip_Code": 30339, "County": "Cobb County", "Latitude": 33.8625, "Longitude": -84.477541 }, "geometry": { "type": "Point", "coordinates": [ -84.477541, 33.8625 ] } },
{ "type": "Feature", "properties": { "OBJECTID": 179, "Company": "Publix", "SIC_Description": "Grocery Stores", "Address": "51 E Paulding Dr", "City": "Dallas", "Zip_Code": 30157, "County": "Paulding County", "Latitude": 33.957918, "Longitude": -84.788377 }, "geometry": { "type": "Point", "coordinates": [ -84.788377, 33.957918 ] } },
{ "type": "Feature", "properties": { "OBJECTID": 180, "Company": "Publix", "SIC_Description": "Grocery Stores", "Address": "108 Pavilion Pkwy", "City": "Fayetteville", "Zip_Code": 30214, "County": "Fayette County", "Latitude": 33.480227, "Longitude": -84.438826 }, "geometry": { "type": "Point", "coordinates": [ -84.438826, 33.480227 ] } },
{ "type": "Feature", "properties": { "OBJECTID": 181, "Company": "Publix", "SIC_Description": "Grocery Stores", "Address": "2750 Buford Hwy", "City": "Duluth", "Zip_Code": 30096, "County": "Gwinnett County", "Latitude": 34.007469, "Longitude": -84.133214 }, "geometry": { "type": "Point", "coordinates": [ -84.133214, 34.0074690000001 ] } },
{ "type": "Feature", "properties": { "OBJECTID": 182, "Company": "Publix", "SIC_Description": "Grocery Stores", "Address": "130 Peachtree East Shopping Ctr", "City": "Peachtree City", "Zip_Code": 30269, "County": "Fayette County", "Latitude": 33.440771, "Longitude": -84.577218 }, "geometry": { "type": "Point", "coordinates": [ -84.577218, 33.440771 ] } },
{ "type": "Feature", "properties": { "OBJECTID": 183, "Company": "Publix", "SIC_Description": "Grocery Stores", "Address": "4403 Towne Lake Pkwy", "City": "Woodstock ", "Zip_Code": 30189, "County": "Cherokee County", "Latitude": 34.128391, "Longitude": -84.571843 }, "geometry": { "type": "Point", "coordinates": [ -84.571843, 34.1283910000001 ] } },
{ "type": "Feature", "properties": { "OBJECTID": 184, "Company": "Publix", "SIC_Description": "Grocery Stores", "Address": "12165 Highway 92", "City": "Woodstock ", "Zip_Code": 30188, "County": "Cherokee County", "Latitude": 34.087736, "Longitude": -84.483641 }, "geometry": { "type": "Point", "coordinates": [ -84.483641, 34.087736 ] } },
{ "type": "Feature", "properties": { "OBJECTID": 185, "Company": "Publix", "SIC_Description": "Grocery Stores", "Address": "2463 Hamilton Mill Pkwy", "City": "Dacula", "Zip_Code": 30019, "County": "Gwinnett County", "Latitude": 34.073593, "Longitude": -83.917743 }, "geometry": { "type": "Point", "coordinates": [ -83.917743, 34.073593000000102 ] } },
{ "type": "Feature", "properties": { "OBJECTID": 186, "Company": "Publix", "SIC_Description": "Grocery Stores", "Address": "2162 Henderson Mill Rd NE", "City": "Atlanta ", "Zip_Code": 30345, "County": "DeKalb County", "Latitude": 33.847322, "Longitude": -84.255771 }, "geometry": { "type": "Point", "coordinates": [ -84.255771, 33.847322 ] } },
{ "type": "Feature", "properties": { "OBJECTID": 187, "Company": "Publix", "SIC_Description": "Grocery Stores", "Address": "5805 State Bridge Rd", "City": "Duluth", "Zip_Code": 30097, "County": "Fulton County", "Latitude": 34.018835, "Longitude": -84.191075 }, "geometry": { "type": "Point", "coordinates": [ -84.191075, 34.018835 ] } },
{ "type": "Feature", "properties": { "OBJECTID": 188, "Company": "Publix", "SIC_Description": "Grocery Stores", "Address": "1000 Peachtree Industrial Blvd", "City": "Suwanee ", "Zip_Code": 30024, "County": "Gwinnett County", "Latitude": 34.052014, "Longitude": -84.088695 }, "geometry": { "type": "Point", "coordinates": [ -84.088695, 34.052014 ] } },
{ "type": "Feature", "properties": { "OBJECTID": 189, "Company": "Publix", "SIC_Description": "Grocery Stores", "Address": "4305 State Bridge Rd", "City": "Alpharetta", "Zip_Code": 30022, "County": "Fulton County", "Latitude": 34.058022, "Longitude": -84.233198 }, "geometry": { "type": "Point", "coordinates": [ -84.233198, 34.058022000000101 ] } },
{ "type": "Feature", "properties": { "OBJECTID": 190, "Company": "Publix", "SIC_Description": "Grocery Stores", "Address": "1451 Riverstone Pkwy", "City": "Canton", "Zip_Code": 30114, "County": "Cherokee County", "Latitude": 34.261048, "Longitude": -84.462294 }, "geometry": { "type": "Point", "coordinates": [ -84.462294, 34.261048000000102 ] } },
{ "type": "Feature", "properties": { "OBJECTID": 191, "Company": "Publix", "SIC_Description": "Grocery Stores", "Address": "4850 Sugarloaf Pkwy", "City": "Lawrenceville ", "Zip_Code": 30044, "County": "Gwinnett County", "Latitude": 33.955249, "Longitude": -84.055785 }, "geometry": { "type": "Point", "coordinates": [ -84.055785, 33.955249 ] } },
{ "type": "Feature", "properties": { "OBJECTID": 192, "Company": "Publix", "SIC_Description": "Grocery Stores", "Address": "3721 New Macland Rd", "City": "Powder Springs", "Zip_Code": 30127, "County": "Cobb County", "Latitude": 33.862391, "Longitude": -84.675608 }, "geometry": { "type": "Point", "coordinates": [ -84.675608, 33.862391000000102 ] } },
{ "type": "Feature", "properties": { "OBJECTID": 193, "Company": "Publix", "SIC_Description": "Grocery Stores", "Address": "1100 Hammond Dr", "City": "Sandy Springs ", "Zip_Code": 30328, "County": "Fulton County", "Latitude": 33.918953, "Longitude": -84.351256 }, "geometry": { "type": "Point", "coordinates": [ -84.351256, 33.918953 ] } },
{ "type": "Feature", "properties": { "OBJECTID": 194, "Company": "Publix", "SIC_Description": "Grocery Stores", "Address": "1544 Piedmont Ave NE", "City": "Atlanta ", "Zip_Code": 30324, "County": "Fulton County", "Latitude": 33.79642, "Longitude": -84.369647 }, "geometry": { "type": "Point", "coordinates": [ -84.369647, 33.79642 ] } },
{ "type": "Feature", "properties": { "OBJECTID": 195, "Company": "Publix", "SIC_Description": "Grocery Stores", "Address": "3535 Peachtree Rd NE", "City": "Atlanta ", "Zip_Code": 30326, "County": "Fulton County", "Latitude": 33.852459, "Longitude": -84.360467 }, "geometry": { "type": "Point", "coordinates": [ -84.360467, 33.852459000000103 ] } },
{ "type": "Feature", "properties": { "OBJECTID": 196, "Company": "Publix", "SIC_Description": "Grocery Stores", "Address": "3870 N Druid Hills Rd", "City": "Decatur ", "Zip_Code": 30033, "County": "DeKalb County", "Latitude": 33.81077, "Longitude": -84.274985 }, "geometry": { "type": "Point", "coordinates": [ -84.274985, 33.81077 ] } },
{ "type": "Feature", "properties": { "OBJECTID": 197, "Company": "Publix", "SIC_Description": "Grocery Stores", "Address": "6175 Hickory Flat Hwy", "City": "Canton", "Zip_Code": 30115, "County": "Cherokee County", "Latitude": 34.221732, "Longitude": -84.471553 }, "geometry": { "type": "Point", "coordinates": [ -84.471553, 34.221732 ] } },
{ "type": "Feature", "properties": { "OBJECTID": 198, "Company": "Publix", "SIC_Description": "Grocery Stores", "Address": "3760 Sixes Rd", "City": "Canton", "Zip_Code": 30114, "County": "Cherokee County", "Latitude": 34.147938, "Longitude": -84.518279 }, "geometry": { "type": "Point", "coordinates": [ -84.518279, 34.147938000000103 ] } },
{ "type": "Feature", "properties": { "OBJECTID": 199, "Company": "Publix", "SIC_Description": "Grocery Stores", "Address": "2365 Peachtree Rd NE", "City": "Atlanta ", "Zip_Code": 30305, "County": "Fulton County", "Latitude": 33.819933, "Longitude": -84.388383 }, "geometry": { "type": "Point", "coordinates": [ -84.388383, 33.819933 ] } },
{ "type": "Feature", "properties": { "OBJECTID": 200, "Company": "Publix", "SIC_Description": "Grocery Stores", "Address": "2155 N Decatur Rd", "City": "Decatur ", "Zip_Code": 30033, "County": "DeKalb County", "Latitude": 33.790331, "Longitude": -84.304309 }, "geometry": { "type": "Point", "coordinates": [ -84.304309, 33.790331 ] } },
{ "type": "Feature", "properties": { "OBJECTID": 201, "Company": "Publix", "SIC_Description": "Grocery Stores", "Address": "3695 Cascade Rd SW", "City": "Atlanta ", "Zip_Code": 30331, "County": "Fulton County", "Latitude": 33.724582, "Longitude": -84.508342 }, "geometry": { "type": "Point", "coordinates": [ -84.508342, 33.724582 ] } },
{ "type": "Feature", "properties": { "OBJECTID": 202, "Company": "Publix", "SIC_Description": "Grocery Stores", "Address": "1727 Mars Hill Rd NW", "City": "Acworth ", "Zip_Code": 30101, "County": "Cobb County", "Latitude": 33.998294, "Longitude": -84.705154 }, "geometry": { "type": "Point", "coordinates": [ -84.705153999999894, 33.998294 ] } },
{ "type": "Feature", "properties": { "OBJECTID": 203, "Company": "Publix", "SIC_Description": "Grocery Stores", "Address": "370 Highway 34 W", "City": "Newnan", "Zip_Code": 30263, "County": "Coweta County", "Latitude": 33.382969, "Longitude": -84.845462 }, "geometry": { "type": "Point", "coordinates": [ -84.845461999999898, 33.382969000000102 ] } },
{ "type": "Feature", "properties": { "OBJECTID": 204, "Company": "Publix", "SIC_Description": "Grocery Stores", "Address": "2900 Delk Rd SE", "City": "Marietta", "Zip_Code": 30067, "County": "Cobb County", "Latitude": 33.923891, "Longitude": -84.467763 }, "geometry": { "type": "Point", "coordinates": [ -84.467763, 33.923891 ] } },
{ "type": "Feature", "properties": { "OBJECTID": 205, "Company": "Publix", "SIC_Description": "Grocery Stores", "Address": "5885 Cumming Hwy", "City": "Buford", "Zip_Code": 30518, "County": "Gwinnett County", "Latitude": 34.118386, "Longitude": -84.076674 }, "geometry": { "type": "Point", "coordinates": [ -84.076674, 34.118386 ] } },
{ "type": "Feature", "properties": { "OBJECTID": 206, "Company": "Publix", "SIC_Description": "Grocery Stores", "Address": "4279 Roswell Rd", "City": "Atlanta ", "Zip_Code": 30342, "County": "Fulton County", "Latitude": 33.871738, "Longitude": -84.381039 }, "geometry": { "type": "Point", "coordinates": [ -84.381039, 33.8717380000001 ] } },
{ "type": "Feature", "properties": { "OBJECTID": 207, "Company": "Publix", "SIC_Description": "Grocery Stores", "Address": "3870 Peachtree Industrial Blvd", "City": "Duluth", "Zip_Code": 30096, "County": "Gwinnett County", "Latitude": 33.987882, "Longitude": -84.170255 }, "geometry": { "type": "Point", "coordinates": [ -84.170254999999898, 33.987882 ] } },
{ "type": "Feature", "properties": { "OBJECTID": 208, "Company": "Publix", "SIC_Description": "Grocery Stores", "Address": "13800 Highway 9 N", "City": "Alpharetta", "Zip_Code": 30004, "County": "Fulton County", "Latitude": 34.119046, "Longitude": -84.270092 }, "geometry": { "type": "Point", "coordinates": [ -84.270092, 34.119046 ] } },
{ "type": "Feature", "properties": { "OBJECTID": 209, "Company": "Publix", "SIC_Description": "Grocery Stores", "Address": "3045 Panola Rd", "City": "Lithonia", "Zip_Code": 30038, "County": "DeKalb County", "Latitude": 33.698043, "Longitude": -84.173075 }, "geometry": { "type": "Point", "coordinates": [ -84.173075, 33.698043 ] } },
{ "type": "Feature", "properties": { "OBJECTID": 210, "Company": "Publix", "SIC_Description": "Grocery Stores", "Address": "1001 Ponce De Leon Ave NE", "City": "Atlanta ", "Zip_Code": 30306, "County": "Fulton County", "Latitude": 33.773799, "Longitude": -84.354342 }, "geometry": { "type": "Point", "coordinates": [ -84.354342, 33.773799000000103 ] } },
{ "type": "Feature", "properties": { "OBJECTID": 211, "Company": "Publix", "SIC_Description": "Grocery Stores", "Address": "5550 Chamblee Dunwoody Rd", "City": "Dunwoody", "Zip_Code": 30338, "County": "DeKalb County", "Latitude": 33.951443, "Longitude": -84.336647 }, "geometry": { "type": "Point", "coordinates": [ -84.336647, 33.951443 ] } },
{ "type": "Feature", "properties": { "OBJECTID": 212, "Company": "Publix", "SIC_Description": "Grocery Stores", "Address": "595 Piedmont Ave NE", "City": "Atlanta ", "Zip_Code": 30308, "County": "Fulton County", "Latitude": 33.770609, "Longitude": -84.381877 }, "geometry": { "type": "Point", "coordinates": [ -84.381877, 33.770609 ] } },
{ "type": "Feature", "properties": { "OBJECTID": 213, "Company": "Publix", "SIC_Description": "Grocery Stores", "Address": "4480 S Cobb Dr SE", "City": "Smyrna", "Zip_Code": 30080, "County": "Cobb County", "Latitude": 33.844639, "Longitude": -84.501877 }, "geometry": { "type": "Point", "coordinates": [ -84.501877, 33.844639 ] } },
{ "type": "Feature", "properties": { "OBJECTID": 214, "Company": "Publix", "SIC_Description": "Grocery Stores", "Address": "1635 Old 41 Hwy NW", "City": "Kennesaw", "Zip_Code": 30152, "County": "Cobb County", "Latitude": 33.993554, "Longitude": -84.599119 }, "geometry": { "type": "Point", "coordinates": [ -84.599119, 33.993554000000103 ] } },
{ "type": "Feature", "properties": { "OBJECTID": 215, "Company": "Publix", "SIC_Description": "Grocery Stores", "Address": "4290 Bells Ferry Rd NW", "City": "Kennesaw", "Zip_Code": 30144, "County": "Cobb County", "Latitude": 34.055424, "Longitude": -84.556436 }, "geometry": { "type": "Point", "coordinates": [ -84.556436, 34.055424000000102 ] } },
{ "type": "Feature", "properties": { "OBJECTID": 216, "Company": "Publix", "SIC_Description": "Grocery Stores", "Address": "4750 Alabama Rd NE", "City": "Roswell ", "Zip_Code": 30075, "County": "Cobb County", "Latitude": 34.043969, "Longitude": -84.373456 }, "geometry": { "type": "Point", "coordinates": [ -84.373456, 34.043969 ] } },
{ "type": "Feature", "properties": { "OBJECTID": 217, "Company": "Publix", "SIC_Description": "Grocery Stores", "Address": "720 Dacula Rd", "City": "Dacula", "Zip_Code": 30019, "County": "Gwinnett County", "Latitude": 34.005343, "Longitude": -83.912941 }, "geometry": { "type": "Point", "coordinates": [ -83.912941, 34.005343 ] } },
{ "type": "Feature", "properties": { "OBJECTID": 218, "Company": "Publix", "SIC_Description": "Grocery Stores", "Address": "4401 Shallowford Rd", "City": "Roswell ", "Zip_Code": 30075, "County": "Cobb County", "Latitude": 34.027319, "Longitude": -84.423772 }, "geometry": { "type": "Point", "coordinates": [ -84.423772, 34.027319 ] } },
{ "type": "Feature", "properties": { "OBJECTID": 219, "Company": "Publix", "SIC_Description": "Grocery Stores", "Address": "3370 Sugarloaf Pkwy", "City": "Lawrenceville ", "Zip_Code": 30044, "County": "Gwinnett County", "Latitude": 33.921959, "Longitude": -84.016951 }, "geometry": { "type": "Point", "coordinates": [ -84.016951, 33.921959000000101 ] } },
{ "type": "Feature", "properties": { "OBJECTID": 220, "Company": "Publix", "SIC_Description": "Grocery Stores", "Address": "100 Glenda Trce", "City": "Newnan", "Zip_Code": 30265, "County": "Coweta County", "Latitude": 33.411401, "Longitude": -84.682938 }, "geometry": { "type": "Point", "coordinates": [ -84.682938, 33.411401 ] } },
{ "type": "Feature", "properties": { "OBJECTID": 221, "Company": "Publix", "SIC_Description": "Grocery Stores", "Address": "2675 Lee Rd", "City": "Lithia Springs", "Zip_Code": 30122, "County": "Douglas County", "Latitude": 33.734567, "Longitude": -84.667212 }, "geometry": { "type": "Point", "coordinates": [ -84.667212, 33.734567 ] } },
{ "type": "Feature", "properties": { "OBJECTID": 222, "Company": "Publix", "SIC_Description": "Grocery Stores", "Address": "2235 Glenwood Ave SE", "City": "Atlanta ", "Zip_Code": 30316, "County": "DeKalb County", "Latitude": 33.740123, "Longitude": -84.313364 }, "geometry": { "type": "Point", "coordinates": [ -84.313364, 33.740123 ] } },
{ "type": "Feature", "properties": { "OBJECTID": 223, "Company": "Publix", "SIC_Description": "Grocery Stores", "Address": "2562 Shallowford Rd NE", "City": "Atlanta ", "Zip_Code": 30345, "County": "DeKalb County", "Latitude": 33.862271, "Longitude": -84.287014 }, "geometry": { "type": "Point", "coordinates": [ -84.287014, 33.862271 ] } },
{ "type": "Feature", "properties": { "OBJECTID": 224, "Company": "Publix", "SIC_Description": "Grocery Stores", "Address": "920 Highway 81 E", "City": "McDonough ", "Zip_Code": 30252, "County": "Henry County", "Latitude": 33.437396, "Longitude": -84.119001 }, "geometry": { "type": "Point", "coordinates": [ -84.119001, 33.437396 ] } },
{ "type": "Feature", "properties": { "OBJECTID": 225, "Company": "Publix", "SIC_Description": "Grocery Stores", "Address": "7736 Spalding Dr", "City": "Norcross", "Zip_Code": 30092, "County": "Fulton County", "Latitude": 33.96639, "Longitude": -84.262324 }, "geometry": { "type": "Point", "coordinates": [ -84.262324, 33.96639 ] } },
{ "type": "Feature", "properties": { "OBJECTID": 226, "Company": "Publix", "SIC_Description": "Grocery Stores", "Address": "2969 N Druid Hills Rd NE", "City": "Atlanta ", "Zip_Code": 30329, "County": "DeKalb County", "Latitude": 33.815151, "Longitude": -84.309989 }, "geometry": { "type": "Point", "coordinates": [ -84.309989, 33.8151510000001 ] } },
{ "type": "Feature", "properties": { "OBJECTID": 227, "Company": "Publix", "SIC_Description": "Grocery Stores", "Address": "1250 W Paces Ferry Rd NW", "City": "Atlanta ", "Zip_Code": 30327, "County": "Fulton County", "Latitude": 33.849492, "Longitude": -84.428537 }, "geometry": { "type": "Point", "coordinates": [ -84.428537, 33.849492 ] } },
{ "type": "Feature", "properties": { "OBJECTID": 228, "Company": "Publix", "SIC_Description": "Grocery Stores", "Address": "1200 Highway 74 S", "City": "Peachtree City", "Zip_Code": 30269, "County": "Fayette County", "Latitude": 33.361056, "Longitude": -84.561904 }, "geometry": { "type": "Point", "coordinates": [ -84.561904, 33.361056 ] } },
{ "type": "Feature", "properties": { "OBJECTID": 229, "Company": "Publix", "SIC_Description": "Grocery Stores", "Address": "6236 Old Highway 5", "City": "Woodstock ", "Zip_Code": 30188, "County": "Cherokee County", "Latitude": 34.130351, "Longitude": -84.498242 }, "geometry": { "type": "Point", "coordinates": [ -84.498242, 34.130351 ] } },
{ "type": "Feature", "properties": { "OBJECTID": 230, "Company": "Publix", "SIC_Description": "Grocery Stores", "Address": "2880 Highway 212 SW", "City": "Conyers ", "Zip_Code": 30094, "County": "Rockdale County", "Latitude": 33.61567, "Longitude": -84.078602 }, "geometry": { "type": "Point", "coordinates": [ -84.078602, 33.615670000000101 ] } },
{ "type": "Feature", "properties": { "OBJECTID": 231, "Company": "Publix", "SIC_Description": "Grocery Stores", "Address": "1512 Highway 74 N", "City": "Tyrone", "Zip_Code": 30290, "County": "Fayette County", "Latitude": 33.493166, "Longitude": -84.582406 }, "geometry": { "type": "Point", "coordinates": [ -84.582406, 33.493166 ] } },
{ "type": "Feature", "properties": { "OBJECTID": 232, "Company": "Publix", "SIC_Description": "Grocery Stores", "Address": "930 New Hope Rd", "City": "Lawrenceville ", "Zip_Code": 30045, "County": "Gwinnett County", "Latitude": 33.933306, "Longitude": -83.956982 }, "geometry": { "type": "Point", "coordinates": [ -83.956982, 33.933306000000101 ] } },
{ "type": "Feature", "properties": { "OBJECTID": 233, "Company": "Publix", "SIC_Description": "Grocery Stores", "Address": "12424 Cumming Hwy", "City": "Canton", "Zip_Code": 30115, "County": "Cherokee County", "Latitude": 34.237286, "Longitude": -84.285728 }, "geometry": { "type": "Point", "coordinates": [ -84.285728, 34.237286 ] } },
{ "type": "Feature", "properties": { "OBJECTID": 234, "Company": "Publix", "SIC_Description": "Grocery Stores", "Address": "120 Prominence Point Pkwy", "City": "Canton", "Zip_Code": 30114, "County": "Cherokee County", "Latitude": 34.184691, "Longitude": -84.520272 }, "geometry": { "type": "Point", "coordinates": [ -84.520272, 34.184691 ] } },
{ "type": "Feature", "properties": { "OBJECTID": 235, "Company": "Publix", "SIC_Description": "Grocery Stores", "Address": "270 Rucker Rd", "City": "Alpharetta", "Zip_Code": 30004, "County": "Fulton County", "Latitude": 34.077709, "Longitude": -84.353952 }, "geometry": { "type": "Point", "coordinates": [ -84.353951999999893, 34.077709 ] } },
{ "type": "Feature", "properties": { "OBJECTID": 236, "Company": "Publix", "SIC_Description": "Grocery Stores", "Address": "1380 Atlantic Dr NW", "City": "Atlanta ", "Zip_Code": 30363, "County": "Fulton County", "Latitude": 33.792463, "Longitude": -84.397563 }, "geometry": { "type": "Point", "coordinates": [ -84.397563, 33.792463 ] } },
{ "type": "Feature", "properties": { "OBJECTID": 237, "Company": "Publix", "SIC_Description": "Grocery Stores", "Address": "1025 Veterans Memorial Hwy SE", "City": "Mableton", "Zip_Code": 30126, "County": "Cobb County", "Latitude": 33.804275, "Longitude": -84.525251 }, "geometry": { "type": "Point", "coordinates": [ -84.525251, 33.804275000000104 ] } },
{ "type": "Feature", "properties": { "OBJECTID": 238, "Company": "Publix", "SIC_Description": "Grocery Stores", "Address": "950 W Peachtree St NW", "City": "Atlanta ", "Zip_Code": 30309, "County": "Fulton County", "Latitude": 33.781464, "Longitude": -84.388063 }, "geometry": { "type": "Point", "coordinates": [ -84.388063, 33.781464 ] } },
{ "type": "Feature", "properties": { "OBJECTID": 239, "Company": "Publix", "SIC_Description": "Grocery Stores", "Address": "3730 Carmia Dr SW", "City": "Atlanta ", "Zip_Code": 30331, "County": "Fulton County", "Latitude": 33.662979, "Longitude": -84.522515 }, "geometry": { "type": "Point", "coordinates": [ -84.522514999999899, 33.662979 ] } },
{ "type": "Feature", "properties": { "OBJECTID": 240, "Company": "Publix", "SIC_Description": "Grocery Stores", "Address": "2325 Cheshire Bridge Rd NE", "City": "Atlanta ", "Zip_Code": 30324, "County": "Fulton County", "Latitude": 33.819176, "Longitude": -84.35136 }, "geometry": { "type": "Point", "coordinates": [ -84.35136, 33.819176 ] } },
{ "type": "Feature", "properties": { "OBJECTID": 241, "Company": "Publix", "SIC_Description": "Grocery Stores", "Address": "1591 Highway 20 NE", "City": "Conyers ", "Zip_Code": 30012, "County": "Rockdale County", "Latitude": 33.68519, "Longitude": -83.998959 }, "geometry": { "type": "Point", "coordinates": [ -83.998959, 33.68519 ] } },
{ "type": "Feature", "properties": { "OBJECTID": 242, "Company": "Publix", "SIC_Description": "Grocery Stores", "Address": "250 E Atlanta Rd", "City": "Stockbridge ", "Zip_Code": 30281, "County": "Henry County", "Latitude": 33.553733, "Longitude": -84.233772 }, "geometry": { "type": "Point", "coordinates": [ -84.233772, 33.553733000000101 ] } },
{ "type": "Feature", "properties": { "OBJECTID": 243, "Company": "Publix", "SIC_Description": "Grocery Stores", "Address": "2730 Highway 155", "City": "Locust Grove", "Zip_Code": 30248, "County": "Henry County", "Latitude": 33.361522, "Longitude": -84.179371 }, "geometry": { "type": "Point", "coordinates": [ -84.179371, 33.361522 ] } },
{ "type": "Feature", "properties": { "OBJECTID": 244, "Company": "Publix", "SIC_Description": "Grocery Stores", "Address": "831 Auburn Rd", "City": "Dacula", "Zip_Code": 30019, "County": "Gwinnett County", "Latitude": 34.032417, "Longitude": -83.886021 }, "geometry": { "type": "Point", "coordinates": [ -83.886021, 34.032417000000102 ] } },
{ "type": "Feature", "properties": { "OBJECTID": 245, "Company": "Publix", "SIC_Description": "Grocery Stores", "Address": "2020 Howell Mill Rd NW", "City": "Atlanta ", "Zip_Code": 30318, "County": "Fulton County", "Latitude": 33.810008, "Longitude": -84.41279 }, "geometry": { "type": "Point", "coordinates": [ -84.41279, 33.810008 ] } },
{ "type": "Feature", "properties": { "OBJECTID": 246, "Company": "Publix", "SIC_Description": "Grocery Stores", "Address": "1425 Market Blvd", "City": "Roswell ", "Zip_Code": 30076, "County": "Fulton County", "Latitude": 34.016612, "Longitude": -84.32266 }, "geometry": { "type": "Point", "coordinates": [ -84.32266, 34.016612000000102 ] } },
{ "type": "Feature", "properties": { "OBJECTID": 247, "Company": "Publix", "SIC_Description": "Grocery Stores", "Address": "980 Birmingham Rd", "City": "Alpharetta", "Zip_Code": 30004, "County": "Fulton County", "Latitude": 34.1659, "Longitude": -84.330691 }, "geometry": { "type": "Point", "coordinates": [ -84.330691, 34.1659000000001 ] } },
{ "type": "Feature", "properties": { "OBJECTID": 248, "Company": "Publix", "SIC_Description": "Grocery Stores", "Address": "2090 Baker Rd NW", "City": "Kennesaw", "Zip_Code": 30144, "County": "Cobb County", "Latitude": 34.050414, "Longitude": -84.612978 }, "geometry": { "type": "Point", "coordinates": [ -84.612977999999899, 34.050414 ] } },
{ "type": "Feature", "properties": { "OBJECTID": 249, "Company": "Publix", "SIC_Description": "Grocery Stores", "Address": "1111 Lower Fayetteville Rd", "City": "Newnan", "Zip_Code": 30265, "County": "Coweta County", "Latitude": 33.37537, "Longitude": -84.753641 }, "geometry": { "type": "Point", "coordinates": [ -84.753641, 33.37537 ] } },
{ "type": "Feature", "properties": { "OBJECTID": 250, "Company": "Publix", "SIC_Description": "Grocery Stores", "Address": "2158 Highway 20 W", "City": "McDonough ", "Zip_Code": 30253, "County": "Henry County", "Latitude": 33.411887, "Longitude": -84.203719 }, "geometry": { "type": "Point", "coordinates": [ -84.203719, 33.411887 ] } },
{ "type": "Feature", "properties": { "OBJECTID": 251, "Company": "Publix", "SIC_Description": "Grocery Stores", "Address": "15 Laurel Canyon Village Cir", "City": "Canton", "Zip_Code": 30114, "County": "Cherokee County", "Latitude": 34.2311, "Longitude": -84.5154 }, "geometry": { "type": "Point", "coordinates": [ -84.5154, 34.2311 ] } },
{ "type": "Feature", "properties": { "OBJECTID": 252, "Company": "Publix", "SIC_Description": "Grocery Stores", "Address": "6110 Cedarcrest Rd NW", "City": "Acworth ", "Zip_Code": 30101, "County": "Cobb County", "Latitude": 34.062352, "Longitude": -84.727761 }, "geometry": { "type": "Point", "coordinates": [ -84.727761, 34.062352 ] } },
{ "type": "Feature", "properties": { "OBJECTID": 253, "Company": "Publix", "SIC_Description": "Grocery Stores", "Address": "104 Town Blvd NE", "City": "Atlanta ", "Zip_Code": 30319, "County": "DeKalb County", "Latitude": 33.869369, "Longitude": -84.33418 }, "geometry": { "type": "Point", "coordinates": [ -84.33418, 33.869369 ] } },
{ "type": "Feature", "properties": { "OBJECTID": 254, "Company": "Publix", "SIC_Description": "Grocery Stores", "Address": "1030 Old Peachtree Rd NW", "City": "Lawrenceville ", "Zip_Code": 30043, "County": "Gwinnett County", "Latitude": 34.000551, "Longitude": -84.070886 }, "geometry": { "type": "Point", "coordinates": [ -84.070886, 34.000551 ] } },
{ "type": "Feature", "properties": { "OBJECTID": 255, "Company": "Publix", "SIC_Description": "Grocery Stores", "Address": "375 Rockbridge Rd NW", "City": "Lilburn ", "Zip_Code": 30047, "County": "Gwinnett County", "Latitude": 33.884546, "Longitude": -84.163896 }, "geometry": { "type": "Point", "coordinates": [ -84.163896, 33.8845460000001 ] } },
{ "type": "Feature", "properties": { "OBJECTID": 256, "Company": "Publix", "SIC_Description": "Grocery Stores", "Address": "7953 Villa Rica Hwy", "City": "Dallas", "Zip_Code": 30157, "County": "Paulding County", "Latitude": 33.810003, "Longitude": -84.88864 }, "geometry": { "type": "Point", "coordinates": [ -84.88864, 33.810003000000101 ] } },
{ "type": "Feature", "properties": { "OBJECTID": 257, "Company": "Publix", "SIC_Description": "Grocery Stores", "Address": "80 Seven Hills Blvd", "City": "Dallas", "Zip_Code": 30132, "County": "Paulding County", "Latitude": 34.015778, "Longitude": -84.77553 }, "geometry": { "type": "Point", "coordinates": [ -84.77553, 34.015778 ] } },
{ "type": "Feature", "properties": { "OBJECTID": 258, "Company": "Publix", "SIC_Description": "Grocery Stores", "Address": "4300 Chapel Hill Rd", "City": "Douglasville", "Zip_Code": 30135, "County": "Douglas County", "Latitude": 33.686222, "Longitude": -84.715633 }, "geometry": { "type": "Point", "coordinates": [ -84.715633, 33.686222 ] } },
{ "type": "Feature", "properties": { "OBJECTID": 259, "Company": "Publix", "SIC_Description": "Grocery Stores", "Address": "5370 Highway 92", "City": "Fairburn", "Zip_Code": 30213, "County": "Fulton County", "Latitude": 33.611576, "Longitude": -84.611683 }, "geometry": { "type": "Point", "coordinates": [ -84.611683, 33.611576 ] } },
{ "type": "Feature", "properties": { "OBJECTID": 260, "Company": "Publix", "SIC_Description": "Grocery Stores", "Address": "840 Glynn St S", "City": "Fayetteville", "Zip_Code": 30214, "County": "Fayette County", "Latitude": 33.431797, "Longitude": -84.457384 }, "geometry": { "type": "Point", "coordinates": [ -84.457384, 33.431797000000103 ] } },
{ "type": "Feature", "properties": { "OBJECTID": 261, "Company": "Publix", "SIC_Description": "Grocery Stores", "Address": "2275 Marietta Blvd NW", "City": "Atlanta ", "Zip_Code": 30318, "County": "Fulton County", "Latitude": 33.818255, "Longitude": -84.448797 }, "geometry": { "type": "Point", "coordinates": [ -84.448797, 33.8182550000001 ] } },
{ "type": "Feature", "properties": { "OBJECTID": 262, "Company": "Sprouts Farmers Market", "SIC_Description": "Grocery Stores", "Address": "5130 Peachtree Pkwy", "City": "Norcross", "Zip_Code": 30092, "County": "Gwinnett County", "Latitude": 33.980135, "Longitude": -84.215795 }, "geometry": { "type": "Point", "coordinates": [ -84.215795, 33.980135 ] } },
{ "type": "Feature", "properties": { "OBJECTID": 263, "Company": "Sprouts Farmers Market", "SIC_Description": "Grocery Stores", "Address": "4330 E West Connector SE", "City": "Smyrna", "Zip_Code": 30082, "County": "Cobb County", "Latitude": 33.842086, "Longitude": -84.513404 }, "geometry": { "type": "Point", "coordinates": [ -84.513404, 33.842086000000101 ] } },
{ "type": "Feature", "properties": { "OBJECTID": 264, "Company": "Sprouts Farmers Market", "SIC_Description": "Grocery Stores", "Address": "10800 Alpharetta Hwy", "City": "Roswell ", "Zip_Code": 30076, "County": "Fulton County", "Latitude": 34.042911, "Longitude": -84.341259 }, "geometry": { "type": "Point", "coordinates": [ -84.341259, 34.042911000000103 ] } },
{ "type": "Feature", "properties": { "OBJECTID": 265, "Company": "Sprouts Farmers Market", "SIC_Description": "Grocery Stores", "Address": "1845 Piedmont Ave NE", "City": "Atlanta ", "Zip_Code": 30324, "County": "Fulton County", "Latitude": 33.80768, "Longitude": -84.370222 }, "geometry": { "type": "Point", "coordinates": [ -84.370222, 33.80768 ] } },
{ "type": "Feature", "properties": { "OBJECTID": 266, "Company": "Sprouts Farmers Market", "SIC_Description": "Grocery Stores", "Address": "4101 Roswell Rd", "City": "Marietta", "Zip_Code": 30062, "County": "Cobb County", "Latitude": 33.981484, "Longitude": -84.43074 }, "geometry": { "type": "Point", "coordinates": [ -84.43074, 33.981484000000101 ] } },
{ "type": "Feature", "properties": { "OBJECTID": 267, "Company": "Sprouts Farmers Market", "SIC_Description": "Grocery Stores", "Address": "2220 Peachtree Industrial Blvd", "City": "Duluth", "Zip_Code": 30097, "County": "Gwinnett County", "Latitude": 34.021195, "Longitude": -84.122988 }, "geometry": { "type": "Point", "coordinates": [ -84.122988, 34.021195 ] } },
{ "type": "Feature", "properties": { "OBJECTID": 268, "Company": "Sprouts Farmers Market", "SIC_Description": "Grocery Stores", "Address": "3805 Dallas Hwy SW", "City": "Marietta", "Zip_Code": 30064, "County": "Cobb County", "Latitude": 33.950822, "Longitude": -84.661046 }, "geometry": { "type": "Point", "coordinates": [ -84.661045999999899, 33.950822000000102 ] } },
{ "type": "Feature", "properties": { "OBJECTID": 269, "Company": "Sprouts Farmers Market", "SIC_Description": "Grocery Stores", "Address": "2551 Blackmon Dr", "City": "Decatur ", "Zip_Code": 30033, "County": "DeKalb County", "Latitude": 33.793858, "Longitude": -84.286972 }, "geometry": { "type": "Point", "coordinates": [ -84.286972, 33.7938580000001 ] } },
{ "type": "Feature", "properties": { "OBJECTID": 270, "Company": "Sprouts Farmers Market", "SIC_Description": "Grocery Stores", "Address": "2015 Highway 54", "City": "Peachtree City", "Zip_Code": 30269, "County": "Fayette County", "Latitude": 33.413825, "Longitude": -84.562004 }, "geometry": { "type": "Point", "coordinates": [ -84.562004, 33.413825 ] } },
{ "type": "Feature", "properties": { "OBJECTID": 271, "Company": "Sprouts Farmers Market", "SIC_Description": "Grocery Stores", "Address": "1430 Towne Lake Pkwy", "City": "Woodstock ", "Zip_Code": 30189, "County": "Cherokee County", "Latitude": 34.104636, "Longitude": -84.540398 }, "geometry": { "type": "Point", "coordinates": [ -84.540398, 34.104636 ] } },
{ "type": "Feature", "properties": { "OBJECTID": 272, "Company": "Super H Mart", "SIC_Description": "Grocery Stores", "Address": "2550 Pleasant Hill Rd", "City": "Duluth", "Zip_Code": 30096, "County": "Gwinnett County", "Latitude": 33.968407, "Longitude": -84.144693 }, "geometry": { "type": "Point", "coordinates": [ -84.144693, 33.968407 ] } },
{ "type": "Feature", "properties": { "OBJECTID": 273, "Company": "Super H Mart", "SIC_Description": "Grocery Stores", "Address": "10820 Abbotts Bridge Rd", "City": "Duluth", "Zip_Code": 30097, "County": "Fulton County", "Latitude": 34.042043, "Longitude": -84.175619 }, "geometry": { "type": "Point", "coordinates": [ -84.175619, 34.042043 ] } },
{ "type": "Feature", "properties": { "OBJECTID": 274, "Company": "The Fresh Market", "SIC_Description": "Grocery Stores", "Address": "3005 Old Alabama Rd", "City": "Alpharetta", "Zip_Code": 30022, "County": "Fulton County", "Latitude": 34.021736, "Longitude": -84.271868 }, "geometry": { "type": "Point", "coordinates": [ -84.271868, 34.021736 ] } },
{ "type": "Feature", "properties": { "OBJECTID": 275, "Company": "The Fresh Market", "SIC_Description": "Grocery Stores", "Address": "5515 Chamblee Dunwoody Rd", "City": "Dunwoody", "Zip_Code": 30338, "County": "DeKalb County", "Latitude": 33.94863, "Longitude": -84.335675 }, "geometry": { "type": "Point", "coordinates": [ -84.335675, 33.94863 ] } },
{ "type": "Feature", "properties": { "OBJECTID": 276, "Company": "The Fresh Market", "SIC_Description": "Grocery Stores", "Address": "2099 Peachtree Rd NE", "City": "Atlanta ", "Zip_Code": 30309, "County": "Fulton County", "Latitude": 33.811918, "Longitude": -84.392292 }, "geometry": { "type": "Point", "coordinates": [ -84.392291999999898, 33.811918 ] } },
{ "type": "Feature", "properties": { "OBJECTID": 277, "Company": "The Fresh Market", "SIC_Description": "Grocery Stores", "Address": "1500 Peachtree Industrial Blvd", "City": "Suwanee ", "Zip_Code": 30024, "County": "Gwinnett County", "Latitude": 34.041801, "Longitude": -84.097886 }, "geometry": { "type": "Point", "coordinates": [ -84.097886, 34.041801 ] } },
{ "type": "Feature", "properties": { "OBJECTID": 278, "Company": "The Fresh Market", "SIC_Description": "Grocery Stores", "Address": "4405 Roswell Rd", "City": "Atlanta ", "Zip_Code": 30342, "County": "Fulton County", "Latitude": 33.876639, "Longitude": -84.380019 }, "geometry": { "type": "Point", "coordinates": [ -84.380019, 33.876639 ] } },
{ "type": "Feature", "properties": { "OBJECTID": 279, "Company": "The Fresh Market", "SIC_Description": "Grocery Stores", "Address": "100 N Peachtree Pkwy", "City": "Peachtree City", "Zip_Code": 30269, "County": "Fayette County", "Latitude": 33.408308, "Longitude": -84.569679 }, "geometry": { "type": "Point", "coordinates": [ -84.569679, 33.408308 ] } },
{ "type": "Feature", "properties": { "OBJECTID": 280, "Company": "The Fresh Market", "SIC_Description": "Grocery Stores", "Address": "1125 Woodstock Rd", "City": "Roswell ", "Zip_Code": 30075, "County": "Fulton County", "Latitude": 34.062246, "Longitude": -84.39721 }, "geometry": { "type": "Point", "coordinates": [ -84.39721, 34.062246000000101 ] } },
{ "type": "Feature", "properties": { "OBJECTID": 281, "Company": "Trader Joe's", "SIC_Description": "Grocery Stores", "Address": "635 W Crossville Rd", "City": "Roswell ", "Zip_Code": 30075, "County": "Fulton County", "Latitude": 34.058285, "Longitude": -84.380923 }, "geometry": { "type": "Point", "coordinates": [ -84.380922999999896, 34.058285 ] } },
{ "type": "Feature", "properties": { "OBJECTID": 282, "Company": "Trader Joe's", "SIC_Description": "Grocery Stores", "Address": "931 Monroe Dr NE", "City": "Atlanta ", "Zip_Code": 30308, "County": "Fulton County", "Latitude": 33.779509, "Longitude": -84.369322 }, "geometry": { "type": "Point", "coordinates": [ -84.369322, 33.779509 ] } },
{ "type": "Feature", "properties": { "OBJECTID": 283, "Company": "Walmart Neighborhood Market", "SIC_Description": "Grocery Stores", "Address": "3059 Lawrenceville Hwy", "City": "Lawrenceville ", "Zip_Code": 30044, "County": "Gwinnett County", "Latitude": 33.921111, "Longitude": -84.085124 }, "geometry": { "type": "Point", "coordinates": [ -84.085124, 33.921111000000103 ] } },
{ "type": "Feature", "properties": { "OBJECTID": 284, "Company": "Walmart Neighborhood Market", "SIC_Description": "Grocery Stores", "Address": "3201 Tucker Norcross Rd", "City": "Tucker", "Zip_Code": 30084, "County": "DeKalb County", "Latitude": 33.882831, "Longitude": -84.219792 }, "geometry": { "type": "Point", "coordinates": [ -84.219792, 33.882831000000103 ] } },
{ "type": "Feature", "properties": { "OBJECTID": 285, "Company": "Walmart Neighborhood Market", "SIC_Description": "Grocery Stores", "Address": "3101 Roswell Rd", "City": "Marietta", "Zip_Code": 30062, "County": "Cobb County", "Latitude": 33.979441, "Longitude": -84.461746 }, "geometry": { "type": "Point", "coordinates": [ -84.461746, 33.979441000000101 ] } },
{ "type": "Feature", "properties": { "OBJECTID": 286, "Company": "Walmart Neighborhood Market", "SIC_Description": "Grocery Stores", "Address": "5025 Winters Chapel Rd", "City": "Doraville ", "Zip_Code": 30360, "County": "DeKalb County", "Latitude": 33.922267, "Longitude": -84.270155 }, "geometry": { "type": "Point", "coordinates": [ -84.270155, 33.922267 ] } },
{ "type": "Feature", "properties": { "OBJECTID": 287, "Company": "Walmart Neighborhood Market", "SIC_Description": "Grocery Stores", "Address": "2909 Austell Rd SW", "City": "Marietta", "Zip_Code": 30008, "County": "Cobb County", "Latitude": 33.882858, "Longitude": -84.587781 }, "geometry": { "type": "Point", "coordinates": [ -84.587781, 33.882858 ] } },
{ "type": "Feature", "properties": { "OBJECTID": 288, "Company": "Wayfield Foods", "SIC_Description": "Grocery Stores", "Address": "2636 Max Cleland Blvd", "City": "Lithonia", "Zip_Code": 30058, "County": "DeKalb County", "Latitude": 33.711593, "Longitude": -84.108766 }, "geometry": { "type": "Point", "coordinates": [ -84.108766, 33.7115930000001 ] } },
{ "type": "Feature", "properties": { "OBJECTID": 289, "Company": "Whole Foods Market", "SIC_Description": "Grocery Stores", "Address": "5930 Roswell Rd", "City": "Sandy Springs ", "Zip_Code": 30328, "County": "Fulton County", "Latitude": 33.917455, "Longitude": -84.379152 }, "geometry": { "type": "Point", "coordinates": [ -84.379152, 33.917455000000103 ] } },